[
 {
   "stationName": "Reading Green Park",
   "lat": 51.426667,
   "long": -1.001389,
   "crsCode": "RGP",
   "natpanCode": "0",
   "FareZone": "0",
   "Wifi": false,
   "LinesServed": "#N/A",
   "serviceType": "N"
 },
 {
   "stationName": "Reading West",
   "lat": 51.455077,
   "long": -0.990143,
   "crsCode": "RDW",
   "natpanCode": "0",
   "FareZone": "0",
   "Wifi": false,
   "LinesServed": "#N/A",
   "serviceType": "N"
 },
 {
   "stationName": "Reading",
   "lat": 51.458767,
   "long": -0.972172,
   "crsCode": "RDG",
   "natpanCode": "0",
   "FareZone": "0",
   "Wifi": false,
   "LinesServed": "Elizabeth line",
   "serviceType": "N"
 },
 {
   "stationName": "Hook",
   "lat": 51.279587,
   "long": -0.961933,
   "crsCode": "HOK",
   "natpanCode": "0",
   "FareZone": "0",
   "Wifi": false,
   "LinesServed": "#N/A",
   "serviceType": "N"
 },
 {
   "stationName": "Haddenham & Thame Parkway",
   "lat": 51.770788,
   "long": -0.942121,
   "crsCode": "HDM",
   "natpanCode": "0",
   "FareZone": "0",
   "Wifi": false,
   "LinesServed": "#N/A",
   "serviceType": "N"
 },
 {
   "stationName": "Earley",
   "lat": 51.441051,
   "long": -0.917989,
   "crsCode": "EAR",
   "natpanCode": "0",
   "FareZone": "0",
   "Wifi": false,
   "LinesServed": "#N/A",
   "serviceType": "N"
 },
 {
   "stationName": "Winchfield",
   "lat": 51.284481,
   "long": -0.90733,
   "crsCode": "WNF",
   "natpanCode": "0",
   "FareZone": "0",
   "Wifi": false,
   "LinesServed": "#N/A",
   "serviceType": "N"
 },
 {
   "stationName": "Henley-On-Thames",
   "lat": 51.534182,
   "long": -0.900133,
   "crsCode": "HOT",
   "natpanCode": "0",
   "FareZone": "0",
   "Wifi": false,
   "LinesServed": "#N/A",
   "serviceType": "N"
 },
 {
   "stationName": "Winnersh Triangle",
   "lat": 51.437233,
   "long": -0.895052,
   "crsCode": "WTI",
   "natpanCode": "0",
   "FareZone": "0",
   "Wifi": false,
   "LinesServed": "#N/A",
   "serviceType": "N"
 },
 {
   "stationName": "Shiplake",
   "lat": 51.51121,
   "long": -0.882452,
   "crsCode": "SHI",
   "natpanCode": "0",
   "FareZone": "0",
   "Wifi": false,
   "LinesServed": "#N/A",
   "serviceType": "N"
 },
 {
   "stationName": "Winnersh",
   "lat": 51.430779,
   "long": -0.87795,
   "crsCode": "WNS",
   "natpanCode": "0",
   "FareZone": "0",
   "Wifi": false,
   "LinesServed": "#N/A",
   "serviceType": "N"
 },
 {
   "stationName": "Wargrave",
   "lat": 51.498217,
   "long": -0.876589,
   "crsCode": "WGV",
   "natpanCode": "0",
   "FareZone": "0",
   "Wifi": false,
   "LinesServed": "#N/A",
   "serviceType": "N"
 },
 {
   "stationName": "Bentley (Hampshire)",
   "lat": 51.180695,
   "long": -0.868287,
   "crsCode": "BTY",
   "natpanCode": "0",
   "FareZone": "0",
   "Wifi": false,
   "LinesServed": "#N/A",
   "serviceType": "N"
 },
 {
   "stationName": "Twyford",
   "lat": 51.475605,
   "long": -0.86389,
   "crsCode": "TWY",
   "natpanCode": "0",
   "FareZone": "0",
   "Wifi": true,
   "LinesServed": "Elizabeth line",
   "serviceType": "T"
 },
 {
   "stationName": "Aylesbury Vale Parkway",
   "lat": 51.8327,
   "long": -0.8623,
   "crsCode": "AVP",
   "natpanCode": "0",
   "FareZone": "0",
   "Wifi": false,
   "LinesServed": "#N/A",
   "serviceType": "N"
 },
 {
   "stationName": "Princes Risborough",
   "lat": 51.717697,
   "long": -0.844059,
   "crsCode": "PRR",
   "natpanCode": "0",
   "FareZone": "0",
   "Wifi": false,
   "LinesServed": "#N/A",
   "serviceType": "N"
 },
 {
   "stationName": "Wokingham",
   "lat": 51.411556,
   "long": -0.842473,
   "crsCode": "WKM",
   "natpanCode": "0",
   "FareZone": "0",
   "Wifi": false,
   "LinesServed": "#N/A",
   "serviceType": "N"
 },
 {
   "stationName": "Fleet",
   "lat": 51.290947,
   "long": -0.831169,
   "crsCode": "FLE",
   "natpanCode": "0",
   "FareZone": "0",
   "Wifi": false,
   "LinesServed": "#N/A",
   "serviceType": "N"
 },
 {
   "stationName": "Monks Risborough",
   "lat": 51.735134,
   "long": -0.829882,
   "crsCode": "MRS",
   "natpanCode": "0",
   "FareZone": "0",
   "Wifi": false,
   "LinesServed": "#N/A",
   "serviceType": "N"
 },
 {
   "stationName": "Saunderton",
   "lat": 51.675751,
   "long": -0.825626,
   "crsCode": "SDR",
   "natpanCode": "0",
   "FareZone": "0",
   "Wifi": false,
   "LinesServed": "#N/A",
   "serviceType": "N"
 },
 {
   "stationName": "Crowthorne",
   "lat": 51.366356,
   "long": -0.819194,
   "crsCode": "CRN",
   "natpanCode": "0",
   "FareZone": "0",
   "Wifi": false,
   "LinesServed": "#N/A",
   "serviceType": "N"
 },
 {
   "stationName": "Aylesbury",
   "lat": 51.813868,
   "long": -0.815048,
   "crsCode": "AYS",
   "natpanCode": "0",
   "FareZone": "0",
   "Wifi": false,
   "LinesServed": "#N/A",
   "serviceType": "N"
 },
 {
   "stationName": "Little Kimble",
   "lat": 51.752014,
   "long": -0.809152,
   "crsCode": "LTK",
   "natpanCode": "0",
   "FareZone": "0",
   "Wifi": false,
   "LinesServed": "#N/A",
   "serviceType": "N"
 },
 {
   "stationName": "Sandhurst",
   "lat": 51.34642,
   "long": -0.803911,
   "crsCode": "SND",
   "natpanCode": "0",
   "FareZone": "0",
   "Wifi": false,
   "LinesServed": "#N/A",
   "serviceType": "N"
 },
 {
   "stationName": "Farnham",
   "lat": 51.211422,
   "long": -0.793093,
   "crsCode": "FNH",
   "natpanCode": "0",
   "FareZone": "0",
   "Wifi": false,
   "LinesServed": "#N/A",
   "serviceType": "N"
 },
 {
   "stationName": "Stoke Mandeville",
   "lat": 51.78772,
   "long": -0.783575,
   "crsCode": "SKM",
   "natpanCode": "0",
   "FareZone": "0",
   "Wifi": false,
   "LinesServed": "#N/A",
   "serviceType": "N"
 },
 {
   "stationName": "Blackwater",
   "lat": 51.33176,
   "long": -0.777023,
   "crsCode": "BAW",
   "natpanCode": "0",
   "FareZone": "0",
   "Wifi": false,
   "LinesServed": "#N/A",
   "serviceType": "N"
 },
 {
   "stationName": "Marlow",
   "lat": 51.570995,
   "long": -0.766452,
   "crsCode": "MLW",
   "natpanCode": "0",
   "FareZone": "0",
   "Wifi": false,
   "LinesServed": "#N/A",
   "serviceType": "N"
 },
 {
   "stationName": "Aldershot",
   "lat": 51.246151,
   "long": -0.760657,
   "crsCode": "AHT",
   "natpanCode": "0",
   "FareZone": "0",
   "Wifi": false,
   "LinesServed": "#N/A",
   "serviceType": "N"
 },
 {
   "stationName": "Farnborough Main",
   "lat": 51.296471,
   "long": -0.756436,
   "crsCode": "FNB",
   "natpanCode": "0",
   "FareZone": "0",
   "Wifi": false,
   "LinesServed": "#N/A",
   "serviceType": "N"
 },
 {
   "stationName": "Bracknell",
   "lat": 51.413319,
   "long": -0.751833,
   "crsCode": "BCE",
   "natpanCode": "0",
   "FareZone": "0",
   "Wifi": false,
   "LinesServed": "#N/A",
   "serviceType": "N"
 },
 {
   "stationName": "Wendover",
   "lat": 51.76193,
   "long": -0.747778,
   "crsCode": "WND",
   "natpanCode": "0",
   "FareZone": "0",
   "Wifi": false,
   "LinesServed": "#N/A",
   "serviceType": "N"
 },
 {
   "stationName": "Frimley",
   "lat": 51.311653,
   "long": -0.747426,
   "crsCode": "FML",
   "natpanCode": "0",
   "FareZone": "0",
   "Wifi": false,
   "LinesServed": "#N/A",
   "serviceType": "N"
 },
 {
   "stationName": "Camberley",
   "lat": 51.335911,
   "long": -0.745328,
   "crsCode": "CAM",
   "natpanCode": "0",
   "FareZone": "0",
   "Wifi": false,
   "LinesServed": "#N/A",
   "serviceType": "N"
 },
 {
   "stationName": "High Wycombe",
   "lat": 51.629793,
   "long": -0.745139,
   "crsCode": "HWY",
   "natpanCode": "0",
   "FareZone": "0",
   "Wifi": false,
   "LinesServed": "#N/A",
   "serviceType": "N"
 },
 {
   "stationName": "Farnborough North",
   "lat": 51.301723,
   "long": -0.743385,
   "crsCode": "FNN",
   "natpanCode": "0",
   "FareZone": "0",
   "Wifi": false,
   "LinesServed": "#N/A",
   "serviceType": "N"
 },
 {
   "stationName": "North Camp",
   "lat": 51.275517,
   "long": -0.731195,
   "crsCode": "NCM",
   "natpanCode": "0",
   "FareZone": "0",
   "Wifi": false,
   "LinesServed": "#N/A",
   "serviceType": "N"
 },
 {
   "stationName": "Furze Platt",
   "lat": 51.533082,
   "long": -0.728467,
   "crsCode": "FZP",
   "natpanCode": "0",
   "FareZone": "0",
   "Wifi": false,
   "LinesServed": "#N/A",
   "serviceType": "N"
 },
 {
   "stationName": "Maidenhead",
   "lat": 51.518601,
   "long": -0.722464,
   "crsCode": "MAI",
   "natpanCode": "0",
   "FareZone": "0",
   "Wifi": false,
   "LinesServed": "#N/A",
   "serviceType": "N"
 },
 {
   "stationName": "Cookham",
   "lat": 51.556873,
   "long": -0.721948,
   "crsCode": "COO",
   "natpanCode": "0",
   "FareZone": "0",
   "Wifi": false,
   "LinesServed": "#N/A",
   "serviceType": "N"
 },
 {
   "stationName": "Ash Vale",
   "lat": 51.272709,
   "long": -0.721247,
   "crsCode": "AHV",
   "natpanCode": "0",
   "FareZone": "0",
   "Wifi": false,
   "LinesServed": "#N/A",
   "serviceType": "N"
 },
 {
   "stationName": "Martins Heron",
   "lat": 51.406689,
   "long": -0.720386,
   "crsCode": "MAO",
   "natpanCode": "0",
   "FareZone": "0",
   "Wifi": false,
   "LinesServed": "#N/A",
   "serviceType": "N"
 },
 {
   "stationName": "Ash",
   "lat": 51.249222,
   "long": -0.711856,
   "crsCode": "ASH",
   "natpanCode": "0",
   "FareZone": "0",
   "Wifi": false,
   "LinesServed": "#N/A",
   "serviceType": "N"
 },
 {
   "stationName": "Bourne End",
   "lat": 51.576538,
   "long": -0.711287,
   "crsCode": "BNE",
   "natpanCode": "0",
   "FareZone": "0",
   "Wifi": false,
   "LinesServed": "#N/A",
   "serviceType": "N"
 },
 {
   "stationName": "Great Missenden",
   "lat": 51.703304,
   "long": -0.709132,
   "crsCode": "GMN",
   "natpanCode": "0",
   "FareZone": "0",
   "Wifi": false,
   "LinesServed": "#N/A",
   "serviceType": "N"
 },
 {
   "stationName": "Bagshot",
   "lat": 51.364964,
   "long": -0.688501,
   "crsCode": "BAG",
   "natpanCode": "0",
   "FareZone": "0",
   "Wifi": false,
   "LinesServed": "#N/A",
   "serviceType": "N"
 },
 {
   "stationName": "Taplow",
   "lat": 51.523528,
   "long": -0.681474,
   "crsCode": "TAP",
   "natpanCode": "0",
   "FareZone": "0",
   "Wifi": false,
   "LinesServed": "Elizabeth line",
   "serviceType": "N"
 },
 {
   "stationName": "Ascot",
   "lat": 51.406185,
   "long": -0.675827,
   "crsCode": "ACT",
   "natpanCode": "0",
   "FareZone": "0",
   "Wifi": false,
   "LinesServed": "#N/A",
   "serviceType": "N"
 },
 {
   "stationName": "Wanborough",
   "lat": 51.245129,
   "long": -0.66756,
   "crsCode": "WAN",
   "natpanCode": "0",
   "FareZone": "0",
   "Wifi": false,
   "LinesServed": "#N/A",
   "serviceType": "N"
 },
 {
   "stationName": "Cheddington",
   "lat": 51.857908,
   "long": -0.662168,
   "crsCode": "CED",
   "natpanCode": "0",
   "FareZone": "0",
   "Wifi": false,
   "LinesServed": "#N/A",
   "serviceType": "N"
 },
 {
   "stationName": "Burnham",
   "lat": 51.523538,
   "long": -0.647335,
   "crsCode": "BNM",
   "natpanCode": "0",
   "FareZone": "0",
   "Wifi": false,
   "LinesServed": "#N/A",
   "serviceType": "N"
 },
 {
   "stationName": "Beaconsfield",
   "lat": 51.611141,
   "long": -0.643644,
   "crsCode": "BCF",
   "natpanCode": "0",
   "FareZone": "0",
   "Wifi": false,
   "LinesServed": "#N/A",
   "serviceType": "N"
 },
 {
   "stationName": "Milford (Surrey)",
   "lat": 51.163849,
   "long": -0.63701,
   "crsCode": "MLF",
   "natpanCode": "0",
   "FareZone": "0",
   "Wifi": false,
   "LinesServed": "#N/A",
   "serviceType": "N"
 },
 {
   "stationName": "Brookwood",
   "lat": 51.303215,
   "long": -0.635753,
   "crsCode": "BKO",
   "natpanCode": "0",
   "FareZone": "0",
   "Wifi": false,
   "LinesServed": "#N/A",
   "serviceType": "N"
 },
 {
   "stationName": "Sunningdale",
   "lat": 51.391312,
   "long": -0.633135,
   "crsCode": "SNG",
   "natpanCode": "0",
   "FareZone": "0",
   "Wifi": false,
   "LinesServed": "#N/A",
   "serviceType": "N"
 },
 {
   "stationName": "Tring",
   "lat": 51.800327,
   "long": -0.622253,
   "crsCode": "TRI",
   "natpanCode": "0",
   "FareZone": "0",
   "Wifi": false,
   "LinesServed": "#N/A",
   "serviceType": "N"
 },
 {
   "stationName": "Godalming",
   "lat": 51.186115,
   "long": -0.619175,
   "crsCode": "GOD",
   "natpanCode": "0",
   "FareZone": "0",
   "Wifi": false,
   "LinesServed": "#N/A",
   "serviceType": "N"
 },
 {
   "stationName": "Chesham",
   "lat": 51.7055,
   "long": -0.61105,
   "crsCode": "CHE",
   "natpanCode": "940GZZLUCSM",
   "FareZone": "0",
   "Wifi": false,
   "LinesServed": "Metropolitan",
   "serviceType": "T"
 },
 {
   "stationName": "Windsor & Eton Central",
   "lat": 51.48275,
   "long": -0.608806,
   "crsCode": "WNC",
   "natpanCode": "0",
   "FareZone": "0",
   "Wifi": false,
   "LinesServed": "#N/A",
   "serviceType": "N"
 },
 {
   "stationName": "Seer Green & Jordans",
   "lat": 51.609524,
   "long": -0.607809,
   "crsCode": "SRG",
   "natpanCode": "0",
   "FareZone": "0",
   "Wifi": false,
   "LinesServed": "#N/A",
   "serviceType": "N"
 },
 {
   "stationName": "Amersham",
   "lat": 51.67439,
   "long": -0.60613,
   "crsCode": "AMR",
   "natpanCode": "0",
   "FareZone": "0",
   "Wifi": true,
   "LinesServed": "Metropolitan",
   "serviceType": "C"
 },
 {
   "stationName": "Windsor & Eton Riverside",
   "lat": 51.486309,
   "long": -0.605804,
   "crsCode": "WNR",
   "natpanCode": "0",
   "FareZone": "0",
   "Wifi": false,
   "LinesServed": "#N/A",
   "serviceType": "N"
 },
 {
   "stationName": "Farncombe",
   "lat": 51.197639,
   "long": -0.604522,
   "crsCode": "FNC",
   "natpanCode": "0",
   "FareZone": "0",
   "Wifi": false,
   "LinesServed": "#N/A",
   "serviceType": "N"
 },
 {
   "stationName": "Longcross",
   "lat": 51.384556,
   "long": -0.594536,
   "crsCode": "LNG",
   "natpanCode": "0",
   "FareZone": "0",
   "Wifi": false,
   "LinesServed": "#N/A",
   "serviceType": "N"
 },
 {
   "stationName": "Slough",
   "lat": 51.511921,
   "long": -0.591803,
   "crsCode": "SLO",
   "natpanCode": "0",
   "FareZone": "0",
   "Wifi": true,
   "LinesServed": "Elizabeth line",
   "serviceType": "T"
 },
 {
   "stationName": "Worplesdon",
   "lat": 51.288189,
   "long": -0.581705,
   "crsCode": "WPL",
   "natpanCode": "0",
   "FareZone": "0",
   "Wifi": false,
   "LinesServed": "#N/A",
   "serviceType": "N"
 },
 {
   "stationName": "Guildford",
   "lat": 51.236912,
   "long": -0.580409,
   "crsCode": "GLD",
   "natpanCode": "0",
   "FareZone": "0",
   "Wifi": false,
   "LinesServed": "#N/A",
   "serviceType": "N"
 },
 {
   "stationName": "Datchet",
   "lat": 51.483303,
   "long": -0.579978,
   "crsCode": "DAT",
   "natpanCode": "0",
   "FareZone": "0",
   "Wifi": false,
   "LinesServed": "#N/A",
   "serviceType": "N"
 },
 {
   "stationName": "Shalford",
   "lat": 51.214264,
   "long": -0.566789,
   "crsCode": "SFR",
   "natpanCode": "0",
   "FareZone": "0",
   "Wifi": false,
   "LinesServed": "#N/A",
   "serviceType": "N"
 },
 {
   "stationName": "London Road (Guildford)",
   "lat": 51.24067,
   "long": -0.56506,
   "crsCode": "LRD",
   "natpanCode": "0",
   "FareZone": "0",
   "Wifi": false,
   "LinesServed": "#N/A",
   "serviceType": "N"
 },
 {
   "stationName": "Berkhamsted",
   "lat": 51.763638,
   "long": -0.562498,
   "crsCode": "BKM",
   "natpanCode": "0",
   "FareZone": "0",
   "Wifi": false,
   "LinesServed": "#N/A",
   "serviceType": "N"
 },
 {
   "stationName": "Virginia Water",
   "lat": 51.401257,
   "long": -0.562389,
   "crsCode": "VIR",
   "natpanCode": "0",
   "FareZone": "0",
   "Wifi": false,
   "LinesServed": "#N/A",
   "serviceType": "N"
 },
 {
   "stationName": "Chalfont & Latimer",
   "lat": 51.66835,
   "long": -0.560646,
   "crsCode": "CFO",
   "natpanCode": "0",
   "FareZone": "0",
   "Wifi": true,
   "LinesServed": "Metropolitan",
   "serviceType": "C"
 },
 {
   "stationName": "Sunnymeads",
   "lat": 51.470451,
   "long": -0.558781,
   "crsCode": "SNY",
   "natpanCode": "0",
   "FareZone": "0",
   "Wifi": false,
   "LinesServed": "#N/A",
   "serviceType": "N"
 },
 {
   "stationName": "Woking",
   "lat": 51.31847,
   "long": -0.557814,
   "crsCode": "WOK",
   "natpanCode": "0",
   "FareZone": "0",
   "Wifi": false,
   "LinesServed": "#N/A",
   "serviceType": "N"
 },
 {
   "stationName": "Gerrards Cross",
   "lat": 51.588883,
   "long": -0.555367,
   "crsCode": "GER",
   "natpanCode": "0",
   "FareZone": "0",
   "Wifi": false,
   "LinesServed": "#N/A",
   "serviceType": "N"
 },
 {
   "stationName": "Egham",
   "lat": 51.428925,
   "long": -0.545701,
   "crsCode": "EGH",
   "natpanCode": "0",
   "FareZone": "0",
   "Wifi": false,
   "LinesServed": "#N/A",
   "serviceType": "N"
 },
 {
   "stationName": "Wraysbury",
   "lat": 51.457661,
   "long": -0.541906,
   "crsCode": "WRY",
   "natpanCode": "0",
   "FareZone": "0",
   "Wifi": false,
   "LinesServed": "#N/A",
   "serviceType": "N"
 },
 {
   "stationName": "Langley",
   "lat": 51.508011,
   "long": -0.541747,
   "crsCode": "LNY",
   "natpanCode": "0",
   "FareZone": "0",
   "Wifi": false,
   "LinesServed": "Elizabeth line",
   "serviceType": "N"
 },
 {
   "stationName": "Chilworth",
   "lat": 51.21553,
   "long": -0.523795,
   "crsCode": "CHL",
   "natpanCode": "0",
   "FareZone": "0",
   "Wifi": false,
   "LinesServed": "#N/A",
   "serviceType": "N"
 },
 {
   "stationName": "Chorleywood",
   "lat": 51.654188,
   "long": -0.51846,
   "crsCode": "CLW",
   "natpanCode": "0",
   "FareZone": "0",
   "Wifi": true,
   "LinesServed": "Metropolitan",
   "serviceType": "C"
 },
 {
   "stationName": "Denham Golf Club",
   "lat": 51.580544,
   "long": -0.517774,
   "crsCode": "DGC",
   "natpanCode": "0",
   "FareZone": "0",
   "Wifi": false,
   "LinesServed": "#N/A",
   "serviceType": "N"
 },
 {
   "stationName": "Chertsey",
   "lat": 51.387108,
   "long": -0.509667,
   "crsCode": "CHY",
   "natpanCode": "0",
   "FareZone": "0",
   "Wifi": false,
   "LinesServed": "#N/A",
   "serviceType": "N"
 },
 {
   "stationName": "Iver",
   "lat": 51.508342,
   "long": -0.506659,
   "crsCode": "IVR",
   "natpanCode": "0",
   "FareZone": "0",
   "Wifi": false,
   "LinesServed": "#N/A",
   "serviceType": "N"
 },
 {
   "stationName": "West Byfleet",
   "lat": 51.339394,
   "long": -0.505468,
   "crsCode": "WBY",
   "natpanCode": "0",
   "FareZone": "0",
   "Wifi": false,
   "LinesServed": "#N/A",
   "serviceType": "N"
 },
 {
   "stationName": "Clandon",
   "lat": 51.263832,
   "long": -0.503622,
   "crsCode": "CLA",
   "natpanCode": "0",
   "FareZone": "0",
   "Wifi": false,
   "LinesServed": "#N/A",
   "serviceType": "N"
 },
 {
   "stationName": "Staines",
   "lat": 51.432873,
   "long": -0.502415,
   "crsCode": "SNS",
   "natpanCode": "0",
   "FareZone": "0",
   "Wifi": false,
   "LinesServed": "#N/A",
   "serviceType": "N"
 },
 {
   "stationName": "Denham",
   "lat": 51.578495,
   "long": -0.497633,
   "crsCode": "DNM",
   "natpanCode": "0",
   "FareZone": "0",
   "Wifi": false,
   "LinesServed": "#N/A",
   "serviceType": "N"
 },
 {
   "stationName": "Hemel Hempstead",
   "lat": 51.742062,
   "long": -0.490762,
   "crsCode": "HML",
   "natpanCode": "0",
   "FareZone": "0",
   "Wifi": false,
   "LinesServed": "#N/A",
   "serviceType": "N"
 },
 {
   "stationName": "Addlestone",
   "lat": 51.372414,
   "long": -0.48571,
   "crsCode": "ASN",
   "natpanCode": "0",
   "FareZone": "0",
   "Wifi": false,
   "LinesServed": "#N/A",
   "serviceType": "N"
 },
 {
   "stationName": "Byfleet & New Haw",
   "lat": 51.349869,
   "long": -0.480714,
   "crsCode": "BFN",
   "natpanCode": "0",
   "FareZone": "0",
   "Wifi": false,
   "LinesServed": "#N/A",
   "serviceType": "N"
 },
 {
   "stationName": "Heathrow Terminal 5 Rail",
   "lat": 51.47,
   "long": -0.48,
   "crsCode": "HWV",
   "natpanCode": "0",
   "FareZone": "0",
   "Wifi": false,
   "LinesServed": "#N/A",
   "serviceType": "N"
 },
 {
   "stationName": "Heathrow Terminal 5",
   "lat": 51.47,
   "long": -0.48,
   "crsCode": "HWV",
   "natpanCode": "940GZZLUHR5",
   "FareZone": "0",
   "Wifi": false,
   "LinesServed": "#N/A",
   "serviceType": "C"
 },
 {
   "stationName": "Uxbridge",
   "lat": 51.54605,
   "long": -0.479221,
   "crsCode": "UBX",
   "natpanCode": "940GZZLUUXB",
   "FareZone": "0",
   "Wifi": false,
   "LinesServed": "Elizabeth line, Piccadilly, Heathrow Express",
   "serviceType": "T"
 },
 {
   "stationName": "Rickmansworth",
   "lat": 51.640447,
   "long": -0.473013,
   "crsCode": "RIC",
   "natpanCode": "0",
   "FareZone": "0",
   "Wifi": true,
   "LinesServed": "Metropolitan",
   "serviceType": "C"
 },
 {
   "stationName": "West Drayton",
   "lat": 51.509827,
   "long": -0.472515,
   "crsCode": "WDT",
   "natpanCode": "0",
   "FareZone": "0",
   "Wifi": false,
   "LinesServed": "Elizabeth line",
   "serviceType": "T"
 },
 {
   "stationName": "Ashford Surrey",
   "lat": 51.436047,
   "long": -0.469229,
   "crsCode": "AFS",
   "natpanCode": "0",
   "FareZone": "0",
   "Wifi": false,
   "LinesServed": "#N/A",
   "serviceType": "N"
 },
 {
   "stationName": "Apsley",
   "lat": 51.732712,
   "long": -0.463568,
   "crsCode": "APS",
   "natpanCode": "0",
   "FareZone": "0",
   "Wifi": false,
   "LinesServed": "#N/A",
   "serviceType": "N"
 },
 {
   "stationName": "Weybridge",
   "lat": 51.361248,
   "long": -0.457352,
   "crsCode": "WYB",
   "natpanCode": "0",
   "FareZone": "0",
   "Wifi": false,
   "LinesServed": "#N/A",
   "serviceType": "N"
 },
 {
   "stationName": "Heathrow Terminals 1-2-3 Rail",
   "lat": 51.471,
   "long": -0.456,
   "crsCode": "HXX",
   "natpanCode": "0",
   "FareZone": "0",
   "Wifi": false,
   "LinesServed": "#N/A",
   "serviceType": "N"
 },
 {
   "stationName": "Heathrow Terminals 2 & 3",
   "lat": 51.471,
   "long": -0.456,
   "crsCode": "HXX",
   "natpanCode": "940GZZLUHRC",
   "FareZone": "0",
   "Wifi": false,
   "LinesServed": "#N/A",
   "serviceType": "C"
 },
 {
   "stationName": "Hillingdon",
   "lat": 51.553717,
   "long": -0.448126,
   "crsCode": "HIL",
   "natpanCode": "940GZZLUHGD",
   "FareZone": "0",
   "Wifi": false,
   "LinesServed": "0",
   "serviceType": "T"
 },
 {
   "stationName": "Shepperton",
   "lat": 51.397091,
   "long": -0.447521,
   "crsCode": "SHP",
   "natpanCode": "0",
   "FareZone": "0",
   "Wifi": false,
   "LinesServed": "#N/A",
   "serviceType": "N"
 },
 {
   "stationName": "Heathrow Terminal 4 Rail",
   "lat": 51.458214,
   "long": -0.445447,
   "crsCode": "HAF",
   "natpanCode": "0",
   "FareZone": "0",
   "Wifi": false,
   "LinesServed": "#N/A",
   "serviceType": "N"
 },
 {
   "stationName": "Heathrow Terminal 4",
   "lat": 51.458214,
   "long": -0.445447,
   "crsCode": "HAF",
   "natpanCode": "940GZZLUHR4",
   "FareZone": "0",
   "Wifi": false,
   "LinesServed": "#N/A",
   "serviceType": "C"
 },
 {
   "stationName": "Gomshall",
   "lat": 51.218964,
   "long": -0.442065,
   "crsCode": "GOM",
   "natpanCode": "0",
   "FareZone": "0",
   "Wifi": false,
   "LinesServed": "#N/A",
   "serviceType": "N"
 },
 {
   "stationName": "Ickenham",
   "lat": 51.562025,
   "long": -0.441899,
   "crsCode": "ICK",
   "natpanCode": "940GZZLUICK",
   "FareZone": "0",
   "Wifi": false,
   "LinesServed": "0",
   "serviceType": "T"
 },
 {
   "stationName": "Croxley",
   "lat": 51.646964,
   "long": -0.441273,
   "crsCode": "CRX",
   "natpanCode": "940GZZLUCXY",
   "FareZone": "0",
   "Wifi": false,
   "LinesServed": "0",
   "serviceType": "T"
 },
 {
   "stationName": "Kings Langley",
   "lat": 51.70631,
   "long": -0.438411,
   "crsCode": "KGL",
   "natpanCode": "0",
   "FareZone": "0",
   "Wifi": false,
   "LinesServed": "#N/A",
   "serviceType": "N"
 },
 {
   "stationName": "West Ruislip",
   "lat": 51.569708,
   "long": -0.437812,
   "crsCode": "WRU",
   "natpanCode": "0",
   "FareZone": "0",
   "Wifi": true,
   "LinesServed": "Central",
   "serviceType": "T"
 },
 {
   "stationName": "Horsley",
   "lat": 51.279114,
   "long": -0.434304,
   "crsCode": "HSY",
   "natpanCode": "0",
   "FareZone": "0",
   "Wifi": false,
   "LinesServed": "#N/A",
   "serviceType": "N"
 },
 {
   "stationName": "Moor Park",
   "lat": 51.629667,
   "long": -0.432734,
   "crsCode": "MOP",
   "natpanCode": "940GZZLUMPK",
   "FareZone": "0",
   "Wifi": false,
   "LinesServed": "0",
   "serviceType": "T"
 },
 {
   "stationName": "Upper Halliford",
   "lat": 51.413036,
   "long": -0.429722,
   "crsCode": "UPH",
   "natpanCode": "0",
   "FareZone": "0",
   "Wifi": false,
   "LinesServed": "#N/A",
   "serviceType": "N"
 },
 {
   "stationName": "Northwood",
   "lat": 51.611157,
   "long": -0.423695,
   "crsCode": "NOD",
   "natpanCode": "940GZZLUNOW",
   "FareZone": "0",
   "Wifi": false,
   "LinesServed": "0",
   "serviceType": "T"
 },
 {
   "stationName": "Hatton Cross",
   "lat": 51.466948,
   "long": -0.422925,
   "crsCode": "HNX",
   "natpanCode": "940GZZLUHNX",
   "FareZone": "0",
   "Wifi": false,
   "LinesServed": "0",
   "serviceType": "T"
 },
 {
   "stationName": "Ruislip",
   "lat": 51.571578,
   "long": -0.421327,
   "crsCode": "RUI",
   "natpanCode": "940GZZLURSP",
   "FareZone": "0",
   "Wifi": false,
   "LinesServed": "0",
   "serviceType": "T"
 },
 {
   "stationName": "Hayes & Harlington",
   "lat": 51.502973,
   "long": -0.420785,
   "crsCode": "HAY",
   "natpanCode": "0",
   "FareZone": "0",
   "Wifi": false,
   "LinesServed": "Elizabeth line",
   "serviceType": "T"
 },
 {
   "stationName": "Effingham Junction",
   "lat": 51.291504,
   "long": -0.419536,
   "crsCode": "EFF",
   "natpanCode": "0",
   "FareZone": "0",
   "Wifi": false,
   "LinesServed": "#N/A",
   "serviceType": "N"
 },
 {
   "stationName": "Watford",
   "lat": 51.657646,
   "long": -0.417688,
   "crsCode": "WAF",
   "natpanCode": "940GZZLUWAF",
   "FareZone": "0",
   "Wifi": false,
   "LinesServed": "0",
   "serviceType": "T"
 },
 {
   "stationName": "Sunbury",
   "lat": 51.418262,
   "long": -0.416611,
   "crsCode": "SUU",
   "natpanCode": "0",
   "FareZone": "0",
   "Wifi": false,
   "LinesServed": "#N/A",
   "serviceType": "N"
 },
 {
   "stationName": "Luton",
   "lat": 51.882233,
   "long": -0.414881,
   "crsCode": "LUT",
   "natpanCode": "0",
   "FareZone": "0",
   "Wifi": false,
   "LinesServed": "#N/A",
   "serviceType": "N"
 },
 {
   "stationName": "Walton-On-Thames",
   "lat": 51.372364,
   "long": -0.413873,
   "crsCode": "WAL",
   "natpanCode": "0",
   "FareZone": "0",
   "Wifi": false,
   "LinesServed": "#N/A",
   "serviceType": "N"
 },
 {
   "stationName": "Ruislip Manor",
   "lat": 51.573146,
   "long": -0.412918,
   "crsCode": "RUM",
   "natpanCode": "940GZZLURSM",
   "FareZone": "0",
   "Wifi": false,
   "LinesServed": "0",
   "serviceType": "T"
 },
 {
   "stationName": "Ruislip Gardens",
   "lat": 51.560604,
   "long": -0.411104,
   "crsCode": "RUG",
   "natpanCode": "940GZZLURSG",
   "FareZone": "0",
   "Wifi": false,
   "LinesServed": "0",
   "serviceType": "T"
 },
 {
   "stationName": "Feltham",
   "lat": 51.447845,
   "long": -0.40983,
   "crsCode": "FEL",
   "natpanCode": "0",
   "FareZone": "0",
   "Wifi": false,
   "LinesServed": "#N/A",
   "serviceType": "N"
 },
 {
   "stationName": "Northwood Hills",
   "lat": 51.600777,
   "long": -0.409471,
   "crsCode": "NWH",
   "natpanCode": "940GZZLUNWH",
   "FareZone": "0",
   "Wifi": false,
   "LinesServed": "0",
   "serviceType": "T"
 },
 {
   "stationName": "Kempton Park",
   "lat": 51.421757,
   "long": -0.40929,
   "crsCode": "KMP",
   "natpanCode": "0",
   "FareZone": "0",
   "Wifi": false,
   "LinesServed": "#N/A",
   "serviceType": "N"
 },
 {
   "stationName": "South Ruislip",
   "lat": 51.556742,
   "long": -0.398812,
   "crsCode": "SRU",
   "natpanCode": "0",
   "FareZone": "0",
   "Wifi": true,
   "LinesServed": "Central",
   "serviceType": "T"
 },
 {
   "stationName": "Eastcote",
   "lat": 51.576449,
   "long": -0.397245,
   "crsCode": "EAS",
   "natpanCode": "940GZZLUEAE",
   "FareZone": "0",
   "Wifi": false,
   "LinesServed": "0",
   "serviceType": "T"
 },
 {
   "stationName": "Watford Junction",
   "lat": 51.663475,
   "long": -0.396506,
   "crsCode": "WFJ",
   "natpanCode": "0",
   "FareZone": "0",
   "Wifi": false,
   "LinesServed": "Lioness line",
   "serviceType": "C"
 },
 {
   "stationName": "Luton Airport Parkway",
   "lat": 51.871159,
   "long": -0.393485,
   "crsCode": "LTN",
   "natpanCode": "0",
   "FareZone": "0",
   "Wifi": false,
   "LinesServed": "#N/A",
   "serviceType": "N"
 },
 {
   "stationName": "Watford High Street",
   "lat": 51.652743,
   "long": -0.391656,
   "crsCode": "WFH",
   "natpanCode": "0",
   "FareZone": "0",
   "Wifi": true,
   "LinesServed": "Lioness line",
   "serviceType": "T"
 },
 {
   "stationName": "Watford North",
   "lat": 51.675087,
   "long": -0.3903,
   "crsCode": "WFN",
   "natpanCode": "0",
   "FareZone": "0",
   "Wifi": false,
   "LinesServed": "#N/A",
   "serviceType": "N"
 },
 {
   "stationName": "Cobham & Stoke Dabernon",
   "lat": 51.318077,
   "long": -0.389917,
   "crsCode": "CSD",
   "natpanCode": "0",
   "FareZone": "0",
   "Wifi": false,
   "LinesServed": "#N/A",
   "serviceType": "N"
 },
 {
   "stationName": "Hersham",
   "lat": 51.377419,
   "long": -0.389271,
   "crsCode": "HER",
   "natpanCode": "0",
   "FareZone": "0",
   "Wifi": false,
   "LinesServed": "#N/A",
   "serviceType": "N"
 },
 {
   "stationName": "Hounslow West",
   "lat": 51.47305,
   "long": -0.385638,
   "crsCode": "HOW",
   "natpanCode": "940GZZLUHWT",
   "FareZone": "0",
   "Wifi": false,
   "LinesServed": "0",
   "serviceType": "T"
 },
 {
   "stationName": "Carpenders Park",
   "lat": 51.627885,
   "long": -0.385578,
   "crsCode": "CPK",
   "natpanCode": "0",
   "FareZone": "0",
   "Wifi": true,
   "LinesServed": "0",
   "serviceType": "T"
 },
 {
   "stationName": "Bookham",
   "lat": 51.288334,
   "long": -0.385224,
   "crsCode": "BKA",
   "natpanCode": "0",
   "FareZone": "0",
   "Wifi": false,
   "LinesServed": "#N/A",
   "serviceType": "N"
 },
 {
   "stationName": "Bushey",
   "lat": 51.644669,
   "long": -0.384806,
   "crsCode": "BSH",
   "natpanCode": "0",
   "FareZone": "0",
   "Wifi": false,
   "LinesServed": "#N/A",
   "serviceType": "N"
 },
 {
   "stationName": "Garston",
   "lat": 51.686685,
   "long": -0.381689,
   "crsCode": "GSN",
   "natpanCode": "0",
   "FareZone": "0",
   "Wifi": false,
   "LinesServed": "#N/A",
   "serviceType": "N"
 },
 {
   "stationName": "Pinner",
   "lat": 51.593007,
   "long": -0.3811,
   "crsCode": "PIN",
   "natpanCode": "940GZZLUPNR",
   "FareZone": "0",
   "Wifi": false,
   "LinesServed": "0",
   "serviceType": "T"
 },
 {
   "stationName": "Southall",
   "lat": 51.505884,
   "long": -0.378513,
   "crsCode": "STL",
   "natpanCode": "0",
   "FareZone": "0",
   "Wifi": false,
   "LinesServed": "Elizabeth line",
   "serviceType": "T"
 },
 {
   "stationName": "Hampton",
   "lat": 51.41607,
   "long": -0.37199,
   "crsCode": "HMP",
   "natpanCode": "0",
   "FareZone": "0",
   "Wifi": false,
   "LinesServed": "#N/A",
   "serviceType": "N"
 },
 {
   "stationName": "Rayners Lane",
   "lat": 51.574951,
   "long": -0.370759,
   "crsCode": "RAL",
   "natpanCode": "940GZZLURYL",
   "FareZone": "0",
   "Wifi": false,
   "LinesServed": "0",
   "serviceType": "T"
 },
 {
   "stationName": "Hatch End",
   "lat": 51.610054,
   "long": -0.369499,
   "crsCode": "HTE",
   "natpanCode": "0",
   "FareZone": "0",
   "Wifi": false,
   "LinesServed": "0",
   "serviceType": "T"
 },
 {
   "stationName": "Northolt",
   "lat": 51.548189,
   "long": -0.368066,
   "crsCode": "NOR",
   "natpanCode": "940GZZLUNHT",
   "FareZone": "0",
   "Wifi": false,
   "LinesServed": "0",
   "serviceType": "T"
 },
 {
   "stationName": "Hounslow Central",
   "lat": 51.471201,
   "long": -0.367014,
   "crsCode": "HOC",
   "natpanCode": "940GZZLUHWC",
   "FareZone": "0",
   "Wifi": false,
   "LinesServed": "0",
   "serviceType": "T"
 },
 {
   "stationName": "North Harrow",
   "lat": 51.584919,
   "long": -0.362016,
   "crsCode": "NHA",
   "natpanCode": "940GZZLUNHA",
   "FareZone": "0",
   "Wifi": false,
   "LinesServed": "0",
   "serviceType": "T"
 },
 {
   "stationName": "Oxshott",
   "lat": 51.336578,
   "long": -0.361993,
   "crsCode": "OXS",
   "natpanCode": "0",
   "FareZone": "0",
   "Wifi": false,
   "LinesServed": "#N/A",
   "serviceType": "N"
 },
 {
   "stationName": "Hounslow",
   "lat": 51.462471,
   "long": -0.361808,
   "crsCode": "HOU",
   "natpanCode": "0",
   "FareZone": "0",
   "Wifi": false,
   "LinesServed": "#N/A",
   "serviceType": "N"
 },
 {
   "stationName": "Northolt Park",
   "lat": 51.557762,
   "long": -0.359827,
   "crsCode": "NLT",
   "natpanCode": "0",
   "FareZone": "0",
   "Wifi": false,
   "LinesServed": "#N/A",
   "serviceType": "N"
 },
 {
   "stationName": "Bricket Wood",
   "lat": 51.705223,
   "long": -0.358846,
   "crsCode": "BWO",
   "natpanCode": "0",
   "FareZone": "0",
   "Wifi": false,
   "LinesServed": "#N/A",
   "serviceType": "N"
 },
 {
   "stationName": "Hounslow East",
   "lat": 51.473306,
   "long": -0.356802,
   "crsCode": "HOE",
   "natpanCode": "940GZZLUHWE",
   "FareZone": "0",
   "Wifi": false,
   "LinesServed": "0",
   "serviceType": "T"
 },
 {
   "stationName": "Headstone Lane",
   "lat": 51.60268,
   "long": -0.356766,
   "crsCode": "HDL",
   "natpanCode": "0",
   "FareZone": "0",
   "Wifi": true,
   "LinesServed": "Lioness line",
   "serviceType": "T"
 },
 {
   "stationName": "Whitton",
   "lat": 51.447109,
   "long": -0.356607,
   "crsCode": "WTN",
   "natpanCode": "0",
   "FareZone": "0",
   "Wifi": false,
   "LinesServed": "#N/A",
   "serviceType": "N"
 },
 {
   "stationName": "Esher",
   "lat": 51.379642,
   "long": -0.354714,
   "crsCode": "ESH",
   "natpanCode": "0",
   "FareZone": "0",
   "Wifi": false,
   "LinesServed": "#N/A",
   "serviceType": "N"
 },
 {
   "stationName": "West Harrow",
   "lat": 51.580145,
   "long": -0.353124,
   "crsCode": "WSH",
   "natpanCode": "940GZZLUWHW",
   "FareZone": "0",
   "Wifi": false,
   "LinesServed": "0",
   "serviceType": "T"
 },
 {
   "stationName": "South Harrow",
   "lat": 51.564914,
   "long": -0.352592,
   "crsCode": "SHH",
   "natpanCode": "940GZZLUSHH",
   "FareZone": "0",
   "Wifi": false,
   "LinesServed": "0",
   "serviceType": "T"
 },
 {
   "stationName": "Harpenden",
   "lat": 51.814831,
   "long": -0.351961,
   "crsCode": "HPD",
   "natpanCode": "0",
   "FareZone": "0",
   "Wifi": false,
   "LinesServed": "#N/A",
   "serviceType": "N"
 },
 {
   "stationName": "Osterley",
   "lat": 51.480895,
   "long": -0.351618,
   "crsCode": "OSY",
   "natpanCode": "940GZZLUOSY",
   "FareZone": "0",
   "Wifi": false,
   "LinesServed": "0",
   "serviceType": "T"
 },
 {
   "stationName": "Fulwell",
   "lat": 51.433525,
   "long": -0.349893,
   "crsCode": "FLW",
   "natpanCode": "0",
   "FareZone": "0",
   "Wifi": false,
   "LinesServed": "#N/A",
   "serviceType": "N"
 },
 {
   "stationName": "Claygate",
   "lat": 51.360664,
   "long": -0.348207,
   "crsCode": "CLG",
   "natpanCode": "0",
   "FareZone": "0",
   "Wifi": false,
   "LinesServed": "#N/A",
   "serviceType": "N"
 },
 {
   "stationName": "Greenford",
   "lat": 51.54235,
   "long": -0.3463,
   "crsCode": "GFD",
   "natpanCode": "0",
   "FareZone": "0",
   "Wifi": true,
   "LinesServed": "Central",
   "serviceType": "C"
 },
 {
   "stationName": "How Wood",
   "lat": 51.717697,
   "long": -0.344594,
   "crsCode": "HWW",
   "natpanCode": "0",
   "FareZone": "0",
   "Wifi": false,
   "LinesServed": "#N/A",
   "serviceType": "N"
 },
 {
   "stationName": "St Albans Abbey",
   "lat": 51.744675,
   "long": -0.342422,
   "crsCode": "SAA",
   "natpanCode": "0",
   "FareZone": "0",
   "Wifi": false,
   "LinesServed": "#N/A",
   "serviceType": "N"
 },
 {
   "stationName": "Hampton Court",
   "lat": 51.401947,
   "long": -0.342412,
   "crsCode": "HMC",
   "natpanCode": "0",
   "FareZone": "0",
   "Wifi": false,
   "LinesServed": "#N/A",
   "serviceType": "N"
 },
 {
   "stationName": "Park Street",
   "lat": 51.725651,
   "long": -0.340727,
   "crsCode": "PKT",
   "natpanCode": "0",
   "FareZone": "0",
   "Wifi": false,
   "LinesServed": "#N/A",
   "serviceType": "N"
 },
 {
   "stationName": "Hinchley Wood",
   "lat": 51.374939,
   "long": -0.340508,
   "crsCode": "HYW",
   "natpanCode": "0",
   "FareZone": "0",
   "Wifi": false,
   "LinesServed": "#N/A",
   "serviceType": "N"
 },
 {
   "stationName": "Thames Ditton",
   "lat": 51.388424,
   "long": -0.340027,
   "crsCode": "THD",
   "natpanCode": "0",
   "FareZone": "0",
   "Wifi": false,
   "LinesServed": "#N/A",
   "serviceType": "N"
 },
 {
   "stationName": "Dorking West",
   "lat": 51.236443,
   "long": -0.339762,
   "crsCode": "DKT",
   "natpanCode": "0",
   "FareZone": "0",
   "Wifi": false,
   "LinesServed": "#N/A",
   "serviceType": "N"
 },
 {
   "stationName": "Strawberry Hill",
   "lat": 51.439682,
   "long": -0.339597,
   "crsCode": "STW",
   "natpanCode": "0",
   "FareZone": "0",
   "Wifi": false,
   "LinesServed": "#N/A",
   "serviceType": "N"
 },
 {
   "stationName": "Hanwell",
   "lat": 51.511604,
   "long": -0.338432,
   "crsCode": "HAN",
   "natpanCode": "0",
   "FareZone": "0",
   "Wifi": false,
   "LinesServed": "Elizabeth line",
   "serviceType": "T"
 },
 {
   "stationName": "Isleworth",
   "lat": 51.474709,
   "long": -0.33689,
   "crsCode": "ISL",
   "natpanCode": "0",
   "FareZone": "0",
   "Wifi": false,
   "LinesServed": "#N/A",
   "serviceType": "N"
 },
 {
   "stationName": "Harrow-on-the-Hill",
   "lat": 51.57931,
   "long": -0.336628,
   "crsCode": "HOH",
   "natpanCode": "0",
   "FareZone": "0",
   "Wifi": true,
   "LinesServed": "Metropolitan",
   "serviceType": "C"
 },
 {
   "stationName": "South Greenford",
   "lat": 51.533339,
   "long": -0.336403,
   "crsCode": "SGN",
   "natpanCode": "0",
   "FareZone": "0",
   "Wifi": false,
   "LinesServed": "#N/A",
   "serviceType": "N"
 },
 {
   "stationName": "Sudbury Hill Harrow",
   "lat": 51.558423,
   "long": -0.336092,
   "crsCode": "SDH",
   "natpanCode": "0",
   "FareZone": "0",
   "Wifi": false,
   "LinesServed": "#N/A",
   "serviceType": "N"
 },
 {
   "stationName": "Sudbury Hill",
   "lat": 51.557011,
   "long": -0.336072,
   "crsCode": "SUH",
   "natpanCode": "940GZZLUSUH",
   "FareZone": "0",
   "Wifi": false,
   "LinesServed": "0",
   "serviceType": "T"
 },
 {
   "stationName": "Harrow & Wealdstone",
   "lat": 51.591576,
   "long": -0.334067,
   "crsCode": "HRW",
   "natpanCode": "0",
   "FareZone": "0",
   "Wifi": true,
   "LinesServed": "Bakerloo, Lioness line",
   "serviceType": "C"
 },
 {
   "stationName": "Leatherhead",
   "lat": 51.298397,
   "long": -0.333225,
   "crsCode": "LHD",
   "natpanCode": "0",
   "FareZone": "0",
   "Wifi": false,
   "LinesServed": "#N/A",
   "serviceType": "N"
 },
 {
   "stationName": "Teddington",
   "lat": 51.424294,
   "long": -0.332965,
   "crsCode": "TED",
   "natpanCode": "0",
   "FareZone": "0",
   "Wifi": false,
   "LinesServed": "#N/A",
   "serviceType": "N"
 },
 {
   "stationName": "Castle Bar Park",
   "lat": 51.522865,
   "long": -0.331575,
   "crsCode": "CBP",
   "natpanCode": "0",
   "FareZone": "0",
   "Wifi": false,
   "LinesServed": "#N/A",
   "serviceType": "N"
 },
 {
   "stationName": "Drayton Green",
   "lat": 51.516326,
   "long": -0.330089,
   "crsCode": "DRG",
   "natpanCode": "0",
   "FareZone": "0",
   "Wifi": false,
   "LinesServed": "#N/A",
   "serviceType": "N"
 },
 {
   "stationName": "Twickenham",
   "lat": 51.450321,
   "long": -0.329136,
   "crsCode": "TWI",
   "natpanCode": "0",
   "FareZone": "0",
   "Wifi": false,
   "LinesServed": "#N/A",
   "serviceType": "N"
 },
 {
   "stationName": "Box Hill & Westhumble",
   "lat": 51.253376,
   "long": -0.329128,
   "crsCode": "BXW",
   "natpanCode": "0",
   "FareZone": "0",
   "Wifi": false,
   "LinesServed": "#N/A",
   "serviceType": "N"
 },
 {
   "stationName": "St Albans",
   "lat": 51.748829,
   "long": -0.326842,
   "crsCode": "SAC",
   "natpanCode": "0",
   "FareZone": "0",
   "Wifi": false,
   "LinesServed": "#N/A",
   "serviceType": "N"
 },
 {
   "stationName": "Syon Lane",
   "lat": 51.481735,
   "long": -0.325116,
   "crsCode": "SYL",
   "natpanCode": "0",
   "FareZone": "0",
   "Wifi": false,
   "LinesServed": "#N/A",
   "serviceType": "N"
 },
 {
   "stationName": "Boston Manor",
   "lat": 51.495851,
   "long": -0.324456,
   "crsCode": "BOM",
   "natpanCode": "940GZZLUBOS",
   "FareZone": "0",
   "Wifi": false,
   "LinesServed": "0",
   "serviceType": "T"
 },
 {
   "stationName": "Perivale",
   "lat": 51.536768,
   "long": -0.324006,
   "crsCode": "PER",
   "natpanCode": "940GZZLUPVL",
   "FareZone": "0",
   "Wifi": false,
   "LinesServed": "0",
   "serviceType": "T"
 },
 {
   "stationName": "Dorking Deepdene",
   "lat": 51.238918,
   "long": -0.323921,
   "crsCode": "DPD",
   "natpanCode": "0",
   "FareZone": "0",
   "Wifi": false,
   "LinesServed": "#N/A",
   "serviceType": "N"
 },
 {
   "stationName": "Dorking",
   "lat": 51.241615,
   "long": -0.323822,
   "crsCode": "DKG",
   "natpanCode": "0",
   "FareZone": "0",
   "Wifi": false,
   "LinesServed": "#N/A",
   "serviceType": "N"
 },
 {
   "stationName": "Holmwood",
   "lat": 51.180428,
   "long": -0.321752,
   "crsCode": "HLM",
   "natpanCode": "0",
   "FareZone": "0",
   "Wifi": false,
   "LinesServed": "#N/A",
   "serviceType": "N"
 },
 {
   "stationName": "West Ealing",
   "lat": 51.513123,
   "long": -0.320792,
   "crsCode": "WEA",
   "natpanCode": "0",
   "FareZone": "0",
   "Wifi": false,
   "LinesServed": "Elizabeth line",
   "serviceType": "T"
 },
 {
   "stationName": "St Margarets (London)",
   "lat": 51.454689,
   "long": -0.320352,
   "crsCode": "SMG",
   "natpanCode": "0",
   "FareZone": "0",
   "Wifi": false,
   "LinesServed": "#N/A",
   "serviceType": "N"
 },
 {
   "stationName": "Northwick Park",
   "lat": 51.578706,
   "long": -0.318178,
   "crsCode": "NOP",
   "natpanCode": "940GZZLUNKP",
   "FareZone": "0",
   "Wifi": false,
   "LinesServed": "0",
   "serviceType": "T"
 },
 {
   "stationName": "Radlett",
   "lat": 51.68486,
   "long": -0.317626,
   "crsCode": "RDT",
   "natpanCode": "0",
   "FareZone": "0",
   "Wifi": false,
   "LinesServed": "#N/A",
   "serviceType": "N"
 },
 {
   "stationName": "Kenton",
   "lat": 51.581436,
   "long": -0.317123,
   "crsCode": "KNT",
   "natpanCode": "0",
   "FareZone": "0",
   "Wifi": true,
   "LinesServed": "Bakerloo, Lioness line",
   "serviceType": "T"
 },
 {
   "stationName": "Sudbury & Harrow Road",
   "lat": 51.554459,
   "long": -0.316676,
   "crsCode": "SUD",
   "natpanCode": "0",
   "FareZone": "0",
   "Wifi": false,
   "LinesServed": "#N/A",
   "serviceType": "N"
 },
 {
   "stationName": "Sudbury Town",
   "lat": 51.550945,
   "long": -0.315581,
   "crsCode": "SUT",
   "natpanCode": "940GZZLUSUT",
   "FareZone": "0",
   "Wifi": false,
   "LinesServed": "0",
   "serviceType": "T"
 },
 {
   "stationName": "Northfields",
   "lat": 51.49927,
   "long": -0.314548,
   "crsCode": "NOF",
   "natpanCode": "940GZZLUNFD",
   "FareZone": "0",
   "Wifi": false,
   "LinesServed": "0",
   "serviceType": "T"
 },
 {
   "stationName": "Hampton Wick",
   "lat": 51.41412,
   "long": -0.313201,
   "crsCode": "HMW",
   "natpanCode": "0",
   "FareZone": "0",
   "Wifi": false,
   "LinesServed": "#N/A",
   "serviceType": "N"
 },
 {
   "stationName": "Brentford",
   "lat": 51.487804,
   "long": -0.309048,
   "crsCode": "BFD",
   "natpanCode": "0",
   "FareZone": "0",
   "Wifi": false,
   "LinesServed": "#N/A",
   "serviceType": "N"
 },
 {
   "stationName": "South Kenton",
   "lat": 51.56963,
   "long": -0.308894,
   "crsCode": "SOK",
   "natpanCode": "0",
   "FareZone": "0",
   "Wifi": true,
   "LinesServed": "Bakerloo, Lioness line",
   "serviceType": "T"
 },
 {
   "stationName": "Chessington South",
   "lat": 51.356491,
   "long": -0.308144,
   "crsCode": "CSS",
   "natpanCode": "0",
   "FareZone": "0",
   "Wifi": false,
   "LinesServed": "#N/A",
   "serviceType": "N"
 },
 {
   "stationName": "Ashtead",
   "lat": 51.317822,
   "long": -0.308126,
   "crsCode": "AHD",
   "natpanCode": "0",
   "FareZone": "0",
   "Wifi": false,
   "LinesServed": "#N/A",
   "serviceType": "N"
 },
 {
   "stationName": "South Ealing",
   "lat": 51.50138,
   "long": -0.306848,
   "crsCode": "SOE",
   "natpanCode": "940GZZLUSEA",
   "FareZone": "0",
   "Wifi": false,
   "LinesServed": "0",
   "serviceType": "T"
 },
 {
   "stationName": "Surbiton",
   "lat": 51.392406,
   "long": -0.303942,
   "crsCode": "SUR",
   "natpanCode": "0",
   "FareZone": "0",
   "Wifi": false,
   "LinesServed": "#N/A",
   "serviceType": "N"
 },
 {
   "stationName": "North Wembley",
   "lat": 51.562355,
   "long": -0.303394,
   "crsCode": "NWB",
   "natpanCode": "0",
   "FareZone": "0",
   "Wifi": false,
   "LinesServed": "Bakerloo, Lioness line",
   "serviceType": "T"
 },
 {
   "stationName": "Stanmore",
   "lat": 51.619728,
   "long": -0.303169,
   "crsCode": "STM",
   "natpanCode": "940GZZLUSTM",
   "FareZone": "0",
   "Wifi": false,
   "LinesServed": "0",
   "serviceType": "T"
 },
 {
   "stationName": "Kingston",
   "lat": 51.412155,
   "long": -0.301768,
   "crsCode": "KNG",
   "natpanCode": "0",
   "FareZone": "0",
   "Wifi": false,
   "LinesServed": "South Western Railway",
   "serviceType": "N"
 },
 {
   "stationName": "Richmond",
   "lat": 51.462505,
   "long": -0.301346,
   "crsCode": "RMD",
   "natpanCode": "0",
   "FareZone": "0",
   "Wifi": true,
   "LinesServed": "District, Mildmay line",
   "serviceType": "C"
 },
 {
   "stationName": "Ealing Broadway",
   "lat": 51.51466,
   "long": -0.300843,
   "crsCode": "EAL",
   "natpanCode": "0",
   "FareZone": "0",
   "Wifi": true,
   "LinesServed": "Central, District, Elizabeth line",
   "serviceType": "C"
 },
 {
   "stationName": "Chessington North",
   "lat": 51.364483,
   "long": -0.300661,
   "crsCode": "CSN",
   "natpanCode": "0",
   "FareZone": "0",
   "Wifi": false,
   "LinesServed": "#N/A",
   "serviceType": "N"
 },
 {
   "stationName": "Alperton",
   "lat": 51.540628,
   "long": -0.299134,
   "crsCode": "ALP",
   "natpanCode": "940GZZLUALP",
   "FareZone": "0",
   "Wifi": false,
   "LinesServed": "0",
   "serviceType": "T"
 },
 {
   "stationName": "Wembley Central",
   "lat": 51.551468,
   "long": -0.296592,
   "crsCode": "WMB",
   "natpanCode": "0",
   "FareZone": "0",
   "Wifi": true,
   "LinesServed": "Bakerloo, Lioness line",
   "serviceType": "C"
 },
 {
   "stationName": "Preston Road",
   "lat": 51.571778,
   "long": -0.294869,
   "crsCode": "PRD",
   "natpanCode": "940GZZLUPRD",
   "FareZone": "0",
   "Wifi": false,
   "LinesServed": "0",
   "serviceType": "T"
 },
 {
   "stationName": "Canons Park",
   "lat": 51.607561,
   "long": -0.294438,
   "crsCode": "CAP",
   "natpanCode": "940GZZLUCPK",
   "FareZone": "0",
   "Wifi": false,
   "LinesServed": "0",
   "serviceType": "T"
 },
 {
   "stationName": "Hanger Lane",
   "lat": 51.530131,
   "long": -0.292749,
   "crsCode": "HAL",
   "natpanCode": "940GZZLUHGR",
   "FareZone": "0",
   "Wifi": false,
   "LinesServed": "0",
   "serviceType": "T"
 },
 {
   "stationName": "North Ealing",
   "lat": 51.517552,
   "long": -0.289155,
   "crsCode": "NOE",
   "natpanCode": "940GZZLUNEN",
   "FareZone": "0",
   "Wifi": false,
   "LinesServed": "0",
   "serviceType": "T"
 },
 {
   "stationName": "Kew Bridge",
   "lat": 51.489311,
   "long": -0.288827,
   "crsCode": "KWB",
   "natpanCode": "0",
   "FareZone": "0",
   "Wifi": false,
   "LinesServed": "#N/A",
   "serviceType": "N"
 },
 {
   "stationName": "Ealing Common",
   "lat": 51.51,
   "long": -0.28805,
   "crsCode": "ZEC",
   "natpanCode": "0",
   "FareZone": "0",
   "Wifi": true,
   "LinesServed": "District, Piccadilly",
   "serviceType": "T"
 },
 {
   "stationName": "Queensbury",
   "lat": 51.594095,
   "long": -0.285515,
   "crsCode": "QBY",
   "natpanCode": "940GZZLUQBY",
   "FareZone": "0",
   "Wifi": false,
   "LinesServed": "0",
   "serviceType": "T"
 },
 {
   "stationName": "North Sheen",
   "lat": 51.464977,
   "long": -0.285423,
   "crsCode": "NSH",
   "natpanCode": "0",
   "FareZone": "0",
   "Wifi": false,
   "LinesServed": "#N/A",
   "serviceType": "N"
 },
 {
   "stationName": "Wembley Stadium",
   "lat": 51.553993,
   "long": -0.284958,
   "crsCode": "WCX",
   "natpanCode": "0",
   "FareZone": "0",
   "Wifi": false,
   "LinesServed": "#N/A",
   "serviceType": "N"
 },
 {
   "stationName": "Kew Gardens",
   "lat": 51.477558,
   "long": -0.284949,
   "crsCode": "KWG",
   "natpanCode": "0",
   "FareZone": "0",
   "Wifi": true,
   "LinesServed": "District, Mildmay line",
   "serviceType": "T"
 },
 {
   "stationName": "Park Royal",
   "lat": 51.52709,
   "long": -0.284645,
   "crsCode": "PKR",
   "natpanCode": "940GZZLUPKR",
   "FareZone": "0",
   "Wifi": false,
   "LinesServed": "0",
   "serviceType": "T"
 },
 {
   "stationName": "Norbiton",
   "lat": 51.411907,
   "long": -0.284525,
   "crsCode": "NBT",
   "natpanCode": "0",
   "FareZone": "0",
   "Wifi": false,
   "LinesServed": "#N/A",
   "serviceType": "N"
 },
 {
   "stationName": "Berrylands",
   "lat": 51.39838,
   "long": -0.282157,
   "crsCode": "BRS",
   "natpanCode": "0",
   "FareZone": "0",
   "Wifi": false,
   "LinesServed": "#N/A",
   "serviceType": "N"
 },
 {
   "stationName": "West Acton",
   "lat": 51.517893,
   "long": -0.281085,
   "crsCode": "WEA",
   "natpanCode": "940GZZLUWTA",
   "FareZone": "0",
   "Wifi": false,
   "LinesServed": "0",
   "serviceType": "T"
 },
 {
   "stationName": "Acton Town",
   "lat": 51.50301,
   "long": -0.28042,
   "crsCode": "ACT",
   "natpanCode": "940GZZLUACT",
   "FareZone": "0",
   "Wifi": false,
   "LinesServed": "0",
   "serviceType": "T"
 },
 {
   "stationName": "Tolworth",
   "lat": 51.37677,
   "long": -0.280098,
   "crsCode": "TOL",
   "natpanCode": "0",
   "FareZone": "0",
   "Wifi": false,
   "LinesServed": "#N/A",
   "serviceType": "N"
 },
 {
   "stationName": "Elstree & Borehamwood",
   "lat": 51.652836,
   "long": -0.279779,
   "crsCode": "ELS",
   "natpanCode": "0",
   "FareZone": "0",
   "Wifi": true,
   "LinesServed": "0",
   "serviceType": "T"
 },
 {
   "stationName": "Wembley Park",
   "lat": 51.563258,
   "long": -0.279202,
   "crsCode": "WEP",
   "natpanCode": "940GZZLUWYP",
   "FareZone": "0",
   "Wifi": false,
   "LinesServed": "0",
   "serviceType": "T"
 },
 {
   "stationName": "Edgware",
   "lat": 51.613655,
   "long": -0.275823,
   "crsCode": "EDG",
   "natpanCode": "940GZZLUEGW",
   "FareZone": "0",
   "Wifi": false,
   "LinesServed": "0",
   "serviceType": "T"
 },
 {
   "stationName": "Gunnersbury",
   "lat": 51.491814,
   "long": -0.275766,
   "crsCode": "GUN",
   "natpanCode": "0",
   "FareZone": "0",
   "Wifi": false,
   "LinesServed": "District, Mildmay line",
   "serviceType": "T"
 },
 {
   "stationName": "Stonebridge Park",
   "lat": 51.543961,
   "long": -0.275233,
   "crsCode": "SBP",
   "natpanCode": "0",
   "FareZone": "0",
   "Wifi": true,
   "LinesServed": "Bakerloo, Lioness line",
   "serviceType": "T"
 },
 {
   "stationName": "South Acton",
   "lat": 51.499813,
   "long": -0.269697,
   "crsCode": "SAT",
   "natpanCode": "0",
   "FareZone": "0",
   "Wifi": true,
   "LinesServed": "Mildmay line",
   "serviceType": "T"
 },
 {
   "stationName": "Epsom",
   "lat": 51.334339,
   "long": -0.268756,
   "crsCode": "EPS",
   "natpanCode": "0",
   "FareZone": "0",
   "Wifi": false,
   "LinesServed": "#N/A",
   "serviceType": "N"
 },
 {
   "stationName": "Chiswick Park",
   "lat": 51.494339,
   "long": -0.268041,
   "crsCode": "CHP",
   "natpanCode": "940GZZLUCWP",
   "FareZone": "0",
   "Wifi": false,
   "LinesServed": "0",
   "serviceType": "T"
 },
 {
   "stationName": "Betchworth",
   "lat": 51.247993,
   "long": -0.26771,
   "crsCode": "BTO",
   "natpanCode": "0",
   "FareZone": "0",
   "Wifi": false,
   "LinesServed": "#N/A",
   "serviceType": "N"
 },
 {
   "stationName": "Acton Main Line",
   "lat": 51.516865,
   "long": -0.26762,
   "crsCode": "AML",
   "natpanCode": "0",
   "FareZone": "0",
   "Wifi": false,
   "LinesServed": "Elizabeth line",
   "serviceType": "T"
 },
 {
   "stationName": "Chiswick",
   "lat": 51.4809,
   "long": -0.267538,
   "crsCode": "CHK",
   "natpanCode": "0",
   "FareZone": "0",
   "Wifi": false,
   "LinesServed": "#N/A",
   "serviceType": "N"
 },
 {
   "stationName": "Mortlake",
   "lat": 51.468288,
   "long": -0.266575,
   "crsCode": "MTL",
   "natpanCode": "0",
   "FareZone": "0",
   "Wifi": false,
   "LinesServed": "#N/A",
   "serviceType": "N"
 },
 {
   "stationName": "Burnt Oak",
   "lat": 51.602591,
   "long": -0.263983,
   "crsCode": "BUO",
   "natpanCode": "940GZZLUBTK",
   "FareZone": "0",
   "Wifi": false,
   "LinesServed": "0",
   "serviceType": "T"
 },
 {
   "stationName": "Acton Central",
   "lat": 51.508717,
   "long": -0.263601,
   "crsCode": "ACC",
   "natpanCode": "0",
   "FareZone": "0",
   "Wifi": true,
   "LinesServed": "0",
   "serviceType": "T"
 },
 {
   "stationName": "Malden Manor",
   "lat": 51.384579,
   "long": -0.261118,
   "crsCode": "MAL",
   "natpanCode": "0",
   "FareZone": "0",
   "Wifi": false,
   "LinesServed": "South Western Railway",
   "serviceType": "N"
 },
 {
   "stationName": "North Acton",
   "lat": 51.523459,
   "long": -0.259757,
   "crsCode": "NOA",
   "natpanCode": "940GZZLUNAN",
   "FareZone": "0",
   "Wifi": false,
   "LinesServed": "0",
   "serviceType": "T"
 },
 {
   "stationName": "Harlesden",
   "lat": 51.536518,
   "long": -0.258214,
   "crsCode": "HDN",
   "natpanCode": "0",
   "FareZone": "0",
   "Wifi": true,
   "LinesServed": "Bakerloo, Lioness line",
   "serviceType": "T"
 },
 {
   "stationName": "Ewell West",
   "lat": 51.349445,
   "long": -0.256711,
   "crsCode": "EWW",
   "natpanCode": "0",
   "FareZone": "0",
   "Wifi": false,
   "LinesServed": "#N/A",
   "serviceType": "N"
 },
 {
   "stationName": "New Malden",
   "lat": 51.403393,
   "long": -0.256084,
   "crsCode": "NEM",
   "natpanCode": "0",
   "FareZone": "0",
   "Wifi": false,
   "LinesServed": "#N/A",
   "serviceType": "N"
 },
 {
   "stationName": "Turnham Green",
   "lat": 51.495381,
   "long": -0.255208,
   "crsCode": "TUG",
   "natpanCode": "940GZZLUTNG",
   "FareZone": "0",
   "Wifi": false,
   "LinesServed": "0",
   "serviceType": "T"
 },
 {
   "stationName": "Barnes Bridge",
   "lat": 51.471676,
   "long": -0.252051,
   "crsCode": "BNI",
   "natpanCode": "0",
   "FareZone": "0",
   "Wifi": false,
   "LinesServed": "#N/A",
   "serviceType": "N"
 },
 {
   "stationName": "Colindale",
   "lat": 51.595333,
   "long": -0.249923,
   "crsCode": "CND",
   "natpanCode": "940GZZLUCND",
   "FareZone": "0",
   "Wifi": false,
   "LinesServed": "0",
   "serviceType": "T"
 },
 {
   "stationName": "Neasden",
   "lat": 51.55402,
   "long": -0.249763,
   "crsCode": "NEA",
   "natpanCode": "940GZZLUNDN",
   "FareZone": "0",
   "Wifi": false,
   "LinesServed": "0",
   "serviceType": "T"
 },
 {
   "stationName": "Mill Hill Broadway",
   "lat": 51.612823,
   "long": -0.249522,
   "crsCode": "MIL",
   "natpanCode": "0",
   "FareZone": "0",
   "Wifi": true,
   "LinesServed": "0",
   "serviceType": "T"
 },
 {
   "stationName": "Stoneleigh",
   "lat": 51.363701,
   "long": -0.247546,
   "crsCode": "SNL",
   "natpanCode": "0",
   "FareZone": "0",
   "Wifi": false,
   "LinesServed": "#N/A",
   "serviceType": "N"
 },
 {
   "stationName": "East Acton",
   "lat": 51.516587,
   "long": -0.247494,
   "crsCode": "EAA",
   "natpanCode": "940GZZLUEAN",
   "FareZone": "0",
   "Wifi": false,
   "LinesServed": "0",
   "serviceType": "T"
 },
 {
   "stationName": "Worcester Park",
   "lat": 51.381649,
   "long": -0.245415,
   "crsCode": "WCP",
   "natpanCode": "0",
   "FareZone": "0",
   "Wifi": false,
   "LinesServed": "#N/A",
   "serviceType": "N"
 },
 {
   "stationName": "Stamford Brook",
   "lat": 51.494949,
   "long": -0.244968,
   "crsCode": "STB",
   "natpanCode": "940GZZLUSFB",
   "FareZone": "0",
   "Wifi": false,
   "LinesServed": "0",
   "serviceType": "T"
 },
 {
   "stationName": "Willesden Junction",
   "lat": 51.5322,
   "long": -0.2435,
   "crsCode": "WIJ",
   "natpanCode": "0",
   "FareZone": "0",
   "Wifi": true,
   "LinesServed": "Bakerloo, Lioness line, Mildmay line",
   "serviceType": "T"
 },
 {
   "stationName": "Epsom Downs",
   "lat": 51.321365,
   "long": -0.243411,
   "crsCode": "EPD",
   "natpanCode": "0",
   "FareZone": "0",
   "Wifi": false,
   "LinesServed": "#N/A",
   "serviceType": "N"
 },
 {
   "stationName": "Tattenham Corner",
   "lat": 51.308765,
   "long": -0.242456,
   "crsCode": "TAT",
   "natpanCode": "0",
   "FareZone": "0",
   "Wifi": false,
   "LinesServed": "#N/A",
   "serviceType": "N"
 },
 {
   "stationName": "Ewell East",
   "lat": 51.345612,
   "long": -0.24106,
   "crsCode": "EWE",
   "natpanCode": "0",
   "FareZone": "0",
   "Wifi": false,
   "LinesServed": "#N/A",
   "serviceType": "N"
 },
 {
   "stationName": "Barnes",
   "lat": 51.467014,
   "long": -0.240711,
   "crsCode": "BNS",
   "natpanCode": "0",
   "FareZone": "0",
   "Wifi": false,
   "LinesServed": "#N/A",
   "serviceType": "N"
 },
 {
   "stationName": "Dollis Hill",
   "lat": 51.551505,
   "long": -0.239172,
   "crsCode": "DOH",
   "natpanCode": "940GZZLUDOH",
   "FareZone": "0",
   "Wifi": false,
   "LinesServed": "0",
   "serviceType": "T"
 },
 {
   "stationName": "Motspur Park",
   "lat": 51.395042,
   "long": -0.23916,
   "crsCode": "MOT",
   "natpanCode": "0",
   "FareZone": "0",
   "Wifi": false,
   "LinesServed": "#N/A",
   "serviceType": "N"
 },
 {
   "stationName": "Hendon",
   "lat": 51.580057,
   "long": -0.238652,
   "crsCode": "HEN",
   "natpanCode": "0",
   "FareZone": "0",
   "Wifi": true,
   "LinesServed": "0",
   "serviceType": "T"
 },
 {
   "stationName": "Ravenscourt Park",
   "lat": 51.494059,
   "long": -0.23656,
   "crsCode": "RAP",
   "natpanCode": "940GZZLURVP",
   "FareZone": "0",
   "Wifi": false,
   "LinesServed": "0",
   "serviceType": "T"
 },
 {
   "stationName": "Tadworth",
   "lat": 51.29158,
   "long": -0.235953,
   "crsCode": "TAD",
   "natpanCode": "0",
   "FareZone": "0",
   "Wifi": false,
   "LinesServed": "#N/A",
   "serviceType": "N"
 },
 {
   "stationName": "Raynes Park",
   "lat": 51.409294,
   "long": -0.22998,
   "crsCode": "RAY",
   "natpanCode": "0",
   "FareZone": "0",
   "Wifi": false,
   "LinesServed": "#N/A",
   "serviceType": "N"
 },
 {
   "stationName": "Hendon Central",
   "lat": 51.582983,
   "long": -0.226942,
   "crsCode": "HCL",
   "natpanCode": "940GZZLUHCL",
   "FareZone": "0",
   "Wifi": false,
   "LinesServed": "0",
   "serviceType": "T"
 },
 {
   "stationName": "Brent Cross West",
   "lat": 51.5687,
   "long": -0.2269,
   "crsCode": "BCZ",
   "natpanCode": "0",
   "FareZone": "0",
   "Wifi": false,
   "LinesServed": "#N/A",
   "serviceType": "N"
 },
 {
   "stationName": "Goldhawk Road",
   "lat": 51.501973,
   "long": -0.226471,
   "crsCode": "GOR",
   "natpanCode": "940GZZLUGHK",
   "FareZone": "0",
   "Wifi": false,
   "LinesServed": "0",
   "serviceType": "T"
 },
 {
   "stationName": "White City",
   "lat": 51.511964,
   "long": -0.224743,
   "crsCode": "WHC",
   "natpanCode": "940GZZLUWCY",
   "FareZone": "0",
   "Wifi": false,
   "LinesServed": "0",
   "serviceType": "T"
 },
 {
   "stationName": "Hammersmith (Broadway) Station",
   "lat": 51.492867,
   "long": -0.224237,
   "crsCode": "HAS",
   "natpanCode": "940GZZLUHSD",
   "FareZone": "2",
   "Wifi": false,
   "LinesServed": "0",
   "serviceType": "T"
 },
 {
   "stationName": "Kensal Green",
   "lat": 51.530602,
   "long": -0.223847,
   "crsCode": "KNL",
   "natpanCode": "0",
   "FareZone": "0",
   "Wifi": false,
   "LinesServed": "Bakerloo, Lioness line",
   "serviceType": "T"
 },
 {
   "stationName": "Willesden Green",
   "lat": 51.549243,
   "long": -0.220941,
   "crsCode": "WIG",
   "natpanCode": "940GZZLUWIG",
   "FareZone": "0",
   "Wifi": false,
   "LinesServed": "0",
   "serviceType": "T"
 },
 {
   "stationName": "Kensal Rise",
   "lat": 51.534157,
   "long": -0.220811,
   "crsCode": "KNR",
   "natpanCode": "0",
   "FareZone": "0",
   "Wifi": true,
   "LinesServed": "Mildmay line",
   "serviceType": "T"
 },
 {
   "stationName": "Shepherds Bush",
   "lat": 51.506,
   "long": -0.218,
   "crsCode": "SPB",
   "natpanCode": "0",
   "FareZone": "0",
   "Wifi": false,
   "LinesServed": "#N/A",
   "serviceType": "N"
 },
 {
   "stationName": "Latimer Road",
   "lat": 51.5137,
   "long": -0.217628,
   "crsCode": "LAT",
   "natpanCode": "940GZZLULRD",
   "FareZone": "0",
   "Wifi": false,
   "LinesServed": "0",
   "serviceType": "T"
 },
 {
   "stationName": "Putney",
   "lat": 51.46125,
   "long": -0.216463,
   "crsCode": "PUT",
   "natpanCode": "0",
   "FareZone": "0",
   "Wifi": false,
   "LinesServed": "#N/A",
   "serviceType": "N"
 },
 {
   "stationName": "Hatfield",
   "lat": 51.763397,
   "long": -0.216162,
   "crsCode": "HAT",
   "natpanCode": "0",
   "FareZone": "0",
   "Wifi": false,
   "LinesServed": "#N/A",
   "serviceType": "N"
 },
 {
   "stationName": "Cheam",
   "lat": 51.35601,
   "long": -0.2148,
   "crsCode": "CHE",
   "natpanCode": "0",
   "FareZone": "0",
   "Wifi": false,
   "LinesServed": "#N/A",
   "serviceType": "N"
 },
 {
   "stationName": "Banstead",
   "lat": 51.329922,
   "long": -0.214384,
   "crsCode": "BAD",
   "natpanCode": "0",
   "FareZone": "0",
   "Wifi": false,
   "LinesServed": "#N/A",
   "serviceType": "N"
 },
 {
   "stationName": "Wimbledon Chase",
   "lat": 51.409958,
   "long": -0.214138,
   "crsCode": "WBO",
   "natpanCode": "0",
   "FareZone": "0",
   "Wifi": false,
   "LinesServed": "0",
   "serviceType": "T"
 },
 {
   "stationName": "Cricklewood",
   "lat": 51.559227,
   "long": -0.214071,
   "crsCode": "CRI",
   "natpanCode": "0",
   "FareZone": "0",
   "Wifi": true,
   "LinesServed": "0",
   "serviceType": "T"
 },
 {
   "stationName": "Barons Court",
   "lat": 51.490374,
   "long": -0.213554,
   "crsCode": "BAC",
   "natpanCode": "940GZZLUBSC",
   "FareZone": "0",
   "Wifi": false,
   "LinesServed": "0",
   "serviceType": "T"
 },
 {
   "stationName": "Kingswood",
   "lat": 51.294807,
   "long": -0.211439,
   "crsCode": "KND",
   "natpanCode": "0",
   "FareZone": "0",
   "Wifi": false,
   "LinesServed": "#N/A",
   "serviceType": "N"
 },
 {
   "stationName": "Kensington (Olympia)",
   "lat": 51.4986,
   "long": -0.2108,
   "crsCode": "KOY",
   "natpanCode": "940GZZLUKOY",
   "FareZone": "0",
   "Wifi": false,
   "LinesServed": "0",
   "serviceType": "T"
 },
 {
   "stationName": "East Putney",
   "lat": 51.459163,
   "long": -0.210742,
   "crsCode": "EAP",
   "natpanCode": "940GZZLUEPY",
   "FareZone": "0",
   "Wifi": false,
   "LinesServed": "0",
   "serviceType": "T"
 },
 {
   "stationName": "Kensington Olympia",
   "lat": 51.497753,
   "long": -0.210189,
   "crsCode": "KPA",
   "natpanCode": "0",
   "FareZone": "0",
   "Wifi": false,
   "LinesServed": "#N/A",
   "serviceType": "N"
 },
 {
   "stationName": "Ladbroke Grove",
   "lat": 51.517424,
   "long": -0.210074,
   "crsCode": "LAD",
   "natpanCode": "940GZZLULAD",
   "FareZone": "0",
   "Wifi": false,
   "LinesServed": "0",
   "serviceType": "T"
 },
 {
   "stationName": "Welham Green",
   "lat": 51.736324,
   "long": -0.209989,
   "crsCode": "WMG",
   "natpanCode": "0",
   "FareZone": "0",
   "Wifi": false,
   "LinesServed": "#N/A",
   "serviceType": "N"
 },
 {
   "stationName": "Brondesbury Park",
   "lat": 51.540896,
   "long": -0.209955,
   "crsCode": "BSP",
   "natpanCode": "0",
   "FareZone": "0",
   "Wifi": false,
   "LinesServed": "0",
   "serviceType": "T"
 },
 {
   "stationName": "Mill Hill East",
   "lat": 51.608269,
   "long": -0.209768,
   "crsCode": "MHE",
   "natpanCode": "940GZZLUMHL",
   "FareZone": "0",
   "Wifi": false,
   "LinesServed": "0",
   "serviceType": "T"
 },
 {
   "stationName": "Putney Bridge",
   "lat": 51.467943,
   "long": -0.209161,
   "crsCode": "PUB",
   "natpanCode": "940GZZLUPYB",
   "FareZone": "0",
   "Wifi": false,
   "LinesServed": "0",
   "serviceType": "T"
 },
 {
   "stationName": "West Kensington",
   "lat": 51.490704,
   "long": -0.206857,
   "crsCode": "WEK",
   "natpanCode": "940GZZLUWKN",
   "FareZone": "0",
   "Wifi": false,
   "LinesServed": "0",
   "serviceType": "T"
 },
 {
   "stationName": "Southfields",
   "lat": 51.444864,
   "long": -0.206538,
   "crsCode": "SFS",
   "natpanCode": "940GZZLUSFS",
   "FareZone": "0",
   "Wifi": false,
   "LinesServed": "0",
   "serviceType": "T"
 },
 {
   "stationName": "Wimbledon",
   "lat": 51.421528,
   "long": -0.206496,
   "crsCode": "WIM",
   "natpanCode": "0",
   "FareZone": "0",
   "Wifi": true,
   "LinesServed": "District, Tramlink",
   "serviceType": "C"
 },
 {
   "stationName": "South Merton",
   "lat": 51.40353,
   "long": -0.205764,
   "crsCode": "SMO",
   "natpanCode": "0",
   "FareZone": "0",
   "Wifi": false,
   "LinesServed": "0",
   "serviceType": "T"
 },
 {
   "stationName": "Holland Park",
   "lat": 51.507276,
   "long": -0.205616,
   "crsCode": "HOP",
   "natpanCode": "940GZZLUHPK",
   "FareZone": "0",
   "Wifi": false,
   "LinesServed": "0",
   "serviceType": "T"
 },
 {
   "stationName": "Queens Park (London)",
   "lat": 51.533916,
   "long": -0.204966,
   "crsCode": "QPW",
   "natpanCode": "0",
   "FareZone": "0",
   "Wifi": false,
   "LinesServed": "#N/A",
   "serviceType": "N"
 },
 {
   "stationName": "Brookmans Park",
   "lat": 51.720955,
   "long": -0.204811,
   "crsCode": "BPK",
   "natpanCode": "0",
   "FareZone": "0",
   "Wifi": false,
   "LinesServed": "#N/A",
   "serviceType": "N"
 },
 {
   "stationName": "West Sutton",
   "lat": 51.365734,
   "long": -0.20437,
   "crsCode": "WSU",
   "natpanCode": "0",
   "FareZone": "0",
   "Wifi": false,
   "LinesServed": "0",
   "serviceType": "T"
 },
 {
   "stationName": "Kilburn",
   "lat": 51.546927,
   "long": -0.204085,
   "crsCode": "KIL",
   "natpanCode": "940GZZLUKBN",
   "FareZone": "0",
   "Wifi": false,
   "LinesServed": "0",
   "serviceType": "T"
 },
 {
   "stationName": "Reigate",
   "lat": 51.241623,
   "long": -0.203474,
   "crsCode": "REI",
   "natpanCode": "0",
   "FareZone": "0",
   "Wifi": false,
   "LinesServed": "#N/A",
   "serviceType": "N"
 },
 {
   "stationName": "Welwyn Garden City",
   "lat": 51.800957,
   "long": -0.203081,
   "crsCode": "WGC",
   "natpanCode": "0",
   "FareZone": "0",
   "Wifi": false,
   "LinesServed": "#N/A",
   "serviceType": "N"
 },
 {
   "stationName": "Brondesbury",
   "lat": 51.545574,
   "long": -0.203063,
   "crsCode": "BSY",
   "natpanCode": "0",
   "FareZone": "0",
   "Wifi": true,
   "LinesServed": "0",
   "serviceType": "T"
 },
 {
   "stationName": "Parsons Green",
   "lat": 51.475352,
   "long": -0.200879,
   "crsCode": "PAG",
   "natpanCode": "940GZZLUPSG",
   "FareZone": "0",
   "Wifi": false,
   "LinesServed": "0",
   "serviceType": "T"
 },
 {
   "stationName": "Westbourne Park",
   "lat": 51.520904,
   "long": -0.20067,
   "crsCode": "WPA",
   "natpanCode": "940GZZLUWSP",
   "FareZone": "0",
   "Wifi": false,
   "LinesServed": "0",
   "serviceType": "T"
 },
 {
   "stationName": "Morden South",
   "lat": 51.396248,
   "long": -0.200299,
   "crsCode": "MDS",
   "natpanCode": "0",
   "FareZone": "0",
   "Wifi": false,
   "LinesServed": "0",
   "serviceType": "T"
 },
 {
   "stationName": "Wimbledon Park",
   "lat": 51.434623,
   "long": -0.199616,
   "crsCode": "WIP",
   "natpanCode": "940GZZLUWIP",
   "FareZone": "0",
   "Wifi": false,
   "LinesServed": "0",
   "serviceType": "T"
 },
 {
   "stationName": "Belmont",
   "lat": 51.344086,
   "long": -0.199471,
   "crsCode": "BLM",
   "natpanCode": "0",
   "FareZone": "0",
   "Wifi": false,
   "LinesServed": "#N/A",
   "serviceType": "N"
 },
 {
   "stationName": "St Helier",
   "lat": 51.389935,
   "long": -0.199115,
   "crsCode": "SIH",
   "natpanCode": "0",
   "FareZone": "0",
   "Wifi": false,
   "LinesServed": "#N/A",
   "serviceType": "N"
 },
 {
   "stationName": "Sutton Common",
   "lat": 51.375519,
   "long": -0.196799,
   "crsCode": "SUC",
   "natpanCode": "0",
   "FareZone": "0",
   "Wifi": false,
   "LinesServed": "0",
   "serviceType": "T"
 },
 {
   "stationName": "Notting Hill Gate",
   "lat": 51.508926,
   "long": -0.196559,
   "crsCode": "NHG",
   "natpanCode": "940GZZLUNHG",
   "FareZone": "0",
   "Wifi": false,
   "LinesServed": "0",
   "serviceType": "T"
 },
 {
   "stationName": "Fulham Broadway",
   "lat": 51.480097,
   "long": -0.195407,
   "crsCode": "FUB",
   "natpanCode": "940GZZLUFBY",
   "FareZone": "0",
   "Wifi": false,
   "LinesServed": "0",
   "serviceType": "T"
 },
 {
   "stationName": "West Brompton",
   "lat": 51.487289,
   "long": -0.195265,
   "crsCode": "WBP",
   "natpanCode": "0",
   "FareZone": "0",
   "Wifi": true,
   "LinesServed": "District, Mildmay line",
   "serviceType": "C"
 },
 {
   "stationName": "Morden",
   "lat": 51.40203,
   "long": -0.194686,
   "crsCode": "MOR",
   "natpanCode": "940GZZLUMDN",
   "FareZone": "0",
   "Wifi": false,
   "LinesServed": "0",
   "serviceType": "T"
 },
 {
   "stationName": "High Barnet",
   "lat": 51.650469,
   "long": -0.194416,
   "crsCode": "HBT",
   "natpanCode": "940GZZLUHBT",
   "FareZone": "0",
   "Wifi": false,
   "LinesServed": "0",
   "serviceType": "T"
 },
 {
   "stationName": "Golders Green",
   "lat": 51.572029,
   "long": -0.194409,
   "crsCode": "GGN",
   "natpanCode": "940GZZLUGGN",
   "FareZone": "0",
   "Wifi": false,
   "LinesServed": "0",
   "serviceType": "T"
 },
 {
   "stationName": "Earl's Court L.T.",
   "lat": 51.49138,
   "long": -0.1936,
   "crsCode": "ZET",
   "natpanCode": "0",
   "FareZone": "0",
   "Wifi": false,
   "LinesServed": "#N/A",
   "serviceType": "N"
 },
 {
   "stationName": "Kilburn Park",
   "lat": 51.535048,
   "long": -0.19358,
   "crsCode": "KIP",
   "natpanCode": "940GZZLUKPK",
   "FareZone": "0",
   "Wifi": false,
   "LinesServed": "0",
   "serviceType": "T"
 },
 {
   "stationName": "Earl's Court",
   "lat": 51.492202,
   "long": -0.193186,
   "crsCode": "ECT",
   "natpanCode": "940GZZLUECT",
   "FareZone": "0",
   "Wifi": false,
   "LinesServed": "0",
   "serviceType": "T"
 },
 {
   "stationName": "High Street Kensington",
   "lat": 51.501029,
   "long": -0.192923,
   "crsCode": "HSK",
   "natpanCode": "940GZZLUHSK",
   "FareZone": "0",
   "Wifi": false,
   "LinesServed": "0",
   "serviceType": "T"
 },
 {
   "stationName": "Potters Bar",
   "lat": 51.697392,
   "long": -0.192715,
   "crsCode": "PBR",
   "natpanCode": "0",
   "FareZone": "0",
   "Wifi": false,
   "LinesServed": "#N/A",
   "serviceType": "N"
 },
 {
   "stationName": "South Wimbledon",
   "lat": 51.41527,
   "long": -0.19251,
   "crsCode": "SWN",
   "natpanCode": "940GZZLUSWN",
   "FareZone": "0",
   "Wifi": false,
   "LinesServed": "0",
   "serviceType": "T"
 },
 {
   "stationName": "West Hampstead Thameslink",
   "lat": 51.548644,
   "long": -0.1924,
   "crsCode": "WHP",
   "natpanCode": "0",
   "FareZone": "0",
   "Wifi": true,
   "LinesServed": "0",
   "serviceType": "T"
 },
 {
   "stationName": "Finchley Central",
   "lat": 51.601087,
   "long": -0.192347,
   "crsCode": "FIC",
   "natpanCode": "940GZZLUFYC",
   "FareZone": "0",
   "Wifi": false,
   "LinesServed": "0",
   "serviceType": "T"
 },
 {
   "stationName": "Welwyn North",
   "lat": 51.824165,
   "long": -0.191992,
   "crsCode": "WLW",
   "natpanCode": "0",
   "FareZone": "0",
   "Wifi": false,
   "LinesServed": "#N/A",
   "serviceType": "N"
 },
 {
   "stationName": "Kilburn High Road",
   "lat": 51.537312,
   "long": -0.19186,
   "crsCode": "KBN",
   "natpanCode": "0",
   "FareZone": "0",
   "Wifi": true,
   "LinesServed": "Lioness line",
   "serviceType": "T"
 },
 {
   "stationName": "West Hampstead",
   "lat": 51.54711,
   "long": -0.191016,
   "crsCode": "WHD",
   "natpanCode": "0",
   "FareZone": "0",
   "Wifi": true,
   "LinesServed": "Jubilee, Mildmay line",
   "serviceType": "T"
 },
 {
   "stationName": "Sutton (London)",
   "lat": 51.360126,
   "long": -0.190223,
   "crsCode": "SUO",
   "natpanCode": "0",
   "FareZone": "0",
   "Wifi": false,
   "LinesServed": "#N/A",
   "serviceType": "N"
 },
 {
   "stationName": "Haydons Road",
   "lat": 51.425755,
   "long": -0.189073,
   "crsCode": "HYR",
   "natpanCode": "0",
   "FareZone": "0",
   "Wifi": false,
   "LinesServed": "0",
   "serviceType": "T"
 },
 {
   "stationName": "Royal Oak",
   "lat": 51.519112,
   "long": -0.188777,
   "crsCode": "ROO",
   "natpanCode": "940GZZLURYO",
   "FareZone": "0",
   "Wifi": false,
   "LinesServed": "0",
   "serviceType": "T"
 },
 {
   "stationName": "Earlsfield",
   "lat": 51.441929,
   "long": -0.188423,
   "crsCode": "EAD",
   "natpanCode": "0",
   "FareZone": "0",
   "Wifi": false,
   "LinesServed": "#N/A",
   "serviceType": "N"
 },
 {
   "stationName": "Bayswater",
   "lat": 51.512386,
   "long": -0.187689,
   "crsCode": "BAY",
   "natpanCode": "940GZZLUBWT",
   "FareZone": "0",
   "Wifi": false,
   "LinesServed": "0",
   "serviceType": "T"
 },
 {
   "stationName": "Wandsworth Town",
   "lat": 51.460812,
   "long": -0.187679,
   "crsCode": "WNT",
   "natpanCode": "0",
   "FareZone": "0",
   "Wifi": false,
   "LinesServed": "#N/A",
   "serviceType": "N"
 },
 {
   "stationName": "Knebworth",
   "lat": 51.86636,
   "long": -0.187406,
   "crsCode": "KBW",
   "natpanCode": "0",
   "FareZone": "0",
   "Wifi": false,
   "LinesServed": "#N/A",
   "serviceType": "N"
 },
 {
   "stationName": "Queensway",
   "lat": 51.510616,
   "long": -0.187168,
   "crsCode": "QWY",
   "natpanCode": "940GZZLUQWY",
   "FareZone": "0",
   "Wifi": false,
   "LinesServed": "0",
   "serviceType": "T"
 },
 {
   "stationName": "Maida Vale",
   "lat": 51.529813,
   "long": -0.185872,
   "crsCode": "MAV",
   "natpanCode": "940GZZLUMVL",
   "FareZone": "0",
   "Wifi": false,
   "LinesServed": "0",
   "serviceType": "T"
 },
 {
   "stationName": "Woodside Park",
   "lat": 51.617954,
   "long": -0.185162,
   "crsCode": "WOP",
   "natpanCode": "940GZZLUWOP",
   "FareZone": "0",
   "Wifi": false,
   "LinesServed": "0",
   "serviceType": "T"
 },
 {
   "stationName": "Warwick Avenue",
   "lat": 51.523358,
   "long": -0.183664,
   "crsCode": "WAR",
   "natpanCode": "940GZZLUWKA",
   "FareZone": "0",
   "Wifi": false,
   "LinesServed": "0",
   "serviceType": "T"
 },
 {
   "stationName": "Finchley Road & Frognal",
   "lat": 51.550198,
   "long": -0.183324,
   "crsCode": "FNY",
   "natpanCode": "0",
   "FareZone": "0",
   "Wifi": true,
   "LinesServed": "Mildmay line",
   "serviceType": "T"
 },
 {
   "stationName": "Imperial Wharf",
   "lat": 51.475134,
   "long": -0.183026,
   "crsCode": "IMW",
   "natpanCode": "0",
   "FareZone": "0",
   "Wifi": false,
   "LinesServed": "0",
   "serviceType": "T"
 },
 {
   "stationName": "Gloucester Road",
   "lat": 51.494332,
   "long": -0.182585,
   "crsCode": "GLR",
   "natpanCode": "940GZZLUGTR",
   "FareZone": "0",
   "Wifi": false,
   "LinesServed": "0",
   "serviceType": "T"
 },
 {
   "stationName": "Finchley Road",
   "lat": 51.546854,
   "long": -0.179555,
   "crsCode": "FIR",
   "natpanCode": "940GZZLUFYR",
   "FareZone": "0",
   "Wifi": false,
   "LinesServed": "0",
   "serviceType": "T"
 },
 {
   "stationName": "Totteridge & Whetstone",
   "lat": 51.630182,
   "long": -0.179285,
   "crsCode": "TAW",
   "natpanCode": "940GZZLUTAW",
   "FareZone": "0",
   "Wifi": false,
   "LinesServed": "0",
   "serviceType": "T"
 },
 {
   "stationName": "South Hampstead",
   "lat": 51.541424,
   "long": -0.178759,
   "crsCode": "SOH",
   "natpanCode": "0",
   "FareZone": "0",
   "Wifi": false,
   "LinesServed": "Lioness line",
   "serviceType": "T"
 },
 {
   "stationName": "Colliers Wood",
   "lat": 51.418052,
   "long": -0.178191,
   "crsCode": "CSD",
   "natpanCode": "940GZZLUCSD",
   "FareZone": "0",
   "Wifi": false,
   "LinesServed": "0",
   "serviceType": "T"
 },
 {
   "stationName": "Hadley Wood",
   "lat": 51.668365,
   "long": -0.176519,
   "crsCode": "HDW",
   "natpanCode": "0",
   "FareZone": "0",
   "Wifi": false,
   "LinesServed": "#N/A",
   "serviceType": "N"
 },
 {
   "stationName": "London Paddington",
   "lat": 51.516014,
   "long": -0.176049,
   "crsCode": "PAD",
   "natpanCode": "0",
   "FareZone": "0",
   "Wifi": false,
   "LinesServed": "#N/A",
   "serviceType": "N"
 },
 {
   "stationName": "Lancaster Gate",
   "lat": 51.511684,
   "long": -0.175424,
   "crsCode": "LAG",
   "natpanCode": "940GZZLULGT",
   "FareZone": "0",
   "Wifi": false,
   "LinesServed": "0",
   "serviceType": "T"
 },
 {
   "stationName": "Paddington",
   "lat": 51.51603693,
   "long": -0.175147741,
   "crsCode": "PDS",
   "natpanCode": "940GZZLUPAC",
   "FareZone": "0",
   "Wifi": false,
   "LinesServed": "0",
   "serviceType": "T"
 },
 {
   "stationName": "Swiss Cottage",
   "lat": 51.543303,
   "long": -0.174404,
   "crsCode": "SWC",
   "natpanCode": "940GZZLUSWC",
   "FareZone": "0",
   "Wifi": false,
   "LinesServed": "0",
   "serviceType": "T"
 },
 {
   "stationName": "South Kensington",
   "lat": 51.494074,
   "long": -0.174096,
   "crsCode": "SKS",
   "natpanCode": "940GZZLUSKS",
   "FareZone": "0",
   "Wifi": false,
   "LinesServed": "0",
   "serviceType": "T"
 },
 {
   "stationName": "New Barnet",
   "lat": 51.648521,
   "long": -0.172972,
   "crsCode": "NBA",
   "natpanCode": "0",
   "FareZone": "0",
   "Wifi": true,
   "LinesServed": "0",
   "serviceType": "T"
 },
 {
   "stationName": "Earlswood (Surrey)",
   "lat": 51.227631,
   "long": -0.171078,
   "crsCode": "ELD",
   "natpanCode": "0",
   "FareZone": "0",
   "Wifi": false,
   "LinesServed": "#N/A",
   "serviceType": "N"
 },
 {
   "stationName": "Clapham Junction",
   "lat": 51.464134,
   "long": -0.170281,
   "crsCode": "CLJ",
   "natpanCode": "0",
   "FareZone": "0",
   "Wifi": false,
   "LinesServed": "Mildmay line, Windrush line",
   "serviceType": "C"
 },
 {
   "stationName": "Edgware Road (Bakerloo)",
   "lat": 51.520209,
   "long": -0.170269,
   "crsCode": "ERB",
   "natpanCode": "940GZZLUERB",
   "FareZone": "0",
   "Wifi": false,
   "LinesServed": "0",
   "serviceType": "T"
 },
 {
   "stationName": "Carshalton Beeches",
   "lat": 51.357117,
   "long": -0.17023,
   "crsCode": "CSB",
   "natpanCode": "0",
   "FareZone": "0",
   "Wifi": false,
   "LinesServed": "#N/A",
   "serviceType": "N"
 },
 {
   "stationName": "Chipstead",
   "lat": 51.309444,
   "long": -0.169259,
   "crsCode": "CHP",
   "natpanCode": "0",
   "FareZone": "0",
   "Wifi": false,
   "LinesServed": "#N/A",
   "serviceType": "N"
 },
 {
   "stationName": "Tooting Broadway",
   "lat": 51.42793,
   "long": -0.168088,
   "crsCode": "TBY",
   "natpanCode": "940GZZLUTBY",
   "FareZone": "0",
   "Wifi": false,
   "LinesServed": "0",
   "serviceType": "T"
 },
 {
   "stationName": "Edgware Road (District, Circle, H&C)",
   "lat": 51.51992192,
   "long": -0.167801,
   "crsCode": "ERD",
   "natpanCode": "940GZZLUERB",
   "FareZone": "0",
   "Wifi": false,
   "LinesServed": "0",
   "serviceType": "T"
 },
 {
   "stationName": "Carshalton",
   "lat": 51.367859,
   "long": -0.16693,
   "crsCode": "CSH",
   "natpanCode": "0",
   "FareZone": "0",
   "Wifi": true,
   "LinesServed": "0",
   "serviceType": "T"
 },
 {
   "stationName": "Oakleigh Park",
   "lat": 51.637627,
   "long": -0.166189,
   "crsCode": "OKL",
   "natpanCode": "0",
   "FareZone": "0",
   "Wifi": true,
   "LinesServed": "0",
   "serviceType": "T"
 },
 {
   "stationName": "Wandsworth Common",
   "lat": 51.446072,
   "long": -0.165239,
   "crsCode": "WSW",
   "natpanCode": "0",
   "FareZone": "0",
   "Wifi": false,
   "LinesServed": "#N/A",
   "serviceType": "N"
 },
 {
   "stationName": "Hampstead Heath",
   "lat": 51.555779,
   "long": -0.165159,
   "crsCode": "HDH",
   "natpanCode": "0",
   "FareZone": "0",
   "Wifi": false,
   "LinesServed": "#N/A",
   "serviceType": "N"
 },
 {
   "stationName": "Redhill",
   "lat": 51.240124,
   "long": -0.164851,
   "crsCode": "RDH",
   "natpanCode": "0",
   "FareZone": "0",
   "Wifi": false,
   "LinesServed": "#N/A",
   "serviceType": "N"
 },
 {
   "stationName": "Belsize Park",
   "lat": 51.550405,
   "long": -0.164471,
   "crsCode": "BZP",
   "natpanCode": "940GZZLUBZP",
   "FareZone": "0",
   "Wifi": false,
   "LinesServed": "0",
   "serviceType": "T"
 },
 {
   "stationName": "London Marylebone",
   "lat": 51.52248,
   "long": -0.163605,
   "crsCode": "MYB",
   "natpanCode": "0",
   "FareZone": "0",
   "Wifi": false,
   "LinesServed": "#N/A",
   "serviceType": "N"
 },
 {
   "stationName": "Knightsbridge",
   "lat": 51.49991,
   "long": -0.16261,
   "crsCode": "KNB",
   "natpanCode": "940GZZLUKNB",
   "FareZone": "0",
   "Wifi": false,
   "LinesServed": "0",
   "serviceType": "T"
 },
 {
   "stationName": "Salfords",
   "lat": 51.201412,
   "long": -0.162096,
   "crsCode": "SAF",
   "natpanCode": "0",
   "FareZone": "0",
   "Wifi": false,
   "LinesServed": "#N/A",
   "serviceType": "N"
 },
 {
   "stationName": "Horley",
   "lat": 51.168137,
   "long": -0.161994,
   "crsCode": "HOR",
   "natpanCode": "0",
   "FareZone": "0",
   "Wifi": false,
   "LinesServed": "#N/A",
   "serviceType": "N"
 },
 {
   "stationName": "Gatwick Airport",
   "lat": 51.156425,
   "long": -0.161022,
   "crsCode": "GTW",
   "natpanCode": "0",
   "FareZone": "0",
   "Wifi": false,
   "LinesServed": "#N/A",
   "serviceType": "N"
 },
 {
   "stationName": "Tooting",
   "lat": 51.419914,
   "long": -0.16053,
   "crsCode": "TOO",
   "natpanCode": "0",
   "FareZone": "0",
   "Wifi": true,
   "LinesServed": "0",
   "serviceType": "T"
 },
 {
   "stationName": "Tooting Bec",
   "lat": 51.435757,
   "long": -0.159718,
   "crsCode": "TBC",
   "natpanCode": "940GZZLUTBC",
   "FareZone": "0",
   "Wifi": false,
   "LinesServed": "0",
   "serviceType": "T"
 },
 {
   "stationName": "Marble Arch",
   "lat": 51.513496,
   "long": -0.158446,
   "crsCode": "MAA",
   "natpanCode": "940GZZLUMBA",
   "FareZone": "0",
   "Wifi": false,
   "LinesServed": "0",
   "serviceType": "T"
 },
 {
   "stationName": "Mitcham Junction",
   "lat": 51.392887,
   "long": -0.157308,
   "crsCode": "MIJ",
   "natpanCode": "0",
   "FareZone": "0",
   "Wifi": false,
   "LinesServed": "Tramlink",
   "serviceType": "C"
 },
 {
   "stationName": "Baker Street",
   "lat": 51.522456,
   "long": -0.156946,
   "crsCode": "BAS",
   "natpanCode": "940GZZLUBST",
   "FareZone": "0",
   "Wifi": false,
   "LinesServed": "0",
   "serviceType": "T"
 },
 {
   "stationName": "Sloane Square",
   "lat": 51.492488,
   "long": -0.156628,
   "crsCode": "SLS",
   "natpanCode": "940GZZLUSSQ",
   "FareZone": "0",
   "Wifi": false,
   "LinesServed": "0",
   "serviceType": "T"
 },
 {
   "stationName": "Woodmansterne",
   "lat": 51.31012,
   "long": -0.154887,
   "crsCode": "WME",
   "natpanCode": "0",
   "FareZone": "0",
   "Wifi": false,
   "LinesServed": "#N/A",
   "serviceType": "N"
 },
 {
   "stationName": "Mitcham Eastfields",
   "lat": 51.407725,
   "long": -0.154764,
   "crsCode": "MTC",
   "natpanCode": "0",
   "FareZone": "0",
   "Wifi": false,
   "LinesServed": "0",
   "serviceType": "T"
 },
 {
   "stationName": "Hackbridge",
   "lat": 51.378437,
   "long": -0.15358,
   "crsCode": "HCB",
   "natpanCode": "0",
   "FareZone": "0",
   "Wifi": false,
   "LinesServed": "0",
   "serviceType": "T"
 },
 {
   "stationName": "Chalk Farm",
   "lat": 51.543948,
   "long": -0.15351,
   "crsCode": "CFM",
   "natpanCode": "940GZZLUCFM",
   "FareZone": "0",
   "Wifi": false,
   "LinesServed": "0",
   "serviceType": "T"
 },
 {
   "stationName": "Hyde Park Corner",
   "lat": 51.503065,
   "long": -0.152772,
   "crsCode": "HPC",
   "natpanCode": "940GZZLUHPC",
   "FareZone": "0",
   "Wifi": false,
   "LinesServed": "0",
   "serviceType": "T"
 },
 {
   "stationName": "Balham",
   "lat": 51.443169,
   "long": -0.152403,
   "crsCode": "BAL",
   "natpanCode": "0",
   "FareZone": "0",
   "Wifi": true,
   "LinesServed": "Northern",
   "serviceType": "T"
 },
 {
   "stationName": "Wallington",
   "lat": 51.360424,
   "long": -0.151431,
   "crsCode": "WLT",
   "natpanCode": "0",
   "FareZone": "0",
   "Wifi": false,
   "LinesServed": "#N/A",
   "serviceType": "N"
 },
 {
   "stationName": "Gospel Oak",
   "lat": 51.555546,
   "long": -0.150737,
   "crsCode": "GPO",
   "natpanCode": "0",
   "FareZone": "0",
   "Wifi": true,
   "LinesServed": "Suffragette line",
   "serviceType": "T"
 },
 {
   "stationName": "Bond Street",
   "lat": 51.514,
   "long": -0.15,
   "crsCode": "BDS",
   "natpanCode": "0",
   "FareZone": "0",
   "Wifi": false,
   "LinesServed": "Central, Elizabeth line, Jubilee",
   "serviceType": "T"
 },
 {
   "stationName": "Cockfosters",
   "lat": 51.651546,
   "long": -0.149806,
   "crsCode": "COC",
   "natpanCode": "940GZZLUCKS",
   "FareZone": "0",
   "Wifi": false,
   "LinesServed": "0",
   "serviceType": "T"
 },
 {
   "stationName": "Merstham",
   "lat": 51.264164,
   "long": -0.149555,
   "crsCode": "MHM",
   "natpanCode": "0",
   "FareZone": "0",
   "Wifi": false,
   "LinesServed": "#N/A",
   "serviceType": "N"
 },
 {
   "stationName": "Battersea Park",
   "lat": 51.477272,
   "long": -0.148151,
   "crsCode": "BAK",
   "natpanCode": "0",
   "FareZone": "0",
   "Wifi": false,
   "LinesServed": "#N/A",
   "serviceType": "N"
 },
 {
   "stationName": "Clapham South",
   "lat": 51.452896,
   "long": -0.147673,
   "crsCode": "CMS",
   "natpanCode": "940GZZLUCPS",
   "FareZone": "0",
   "Wifi": false,
   "LinesServed": "0",
   "serviceType": "T"
 },
 {
   "stationName": "Queenstown Road (Battersea)",
   "lat": 51.474552,
   "long": -0.146819,
   "crsCode": "QRB",
   "natpanCode": "0",
   "FareZone": "0",
   "Wifi": false,
   "LinesServed": "#N/A",
   "serviceType": "N"
 },
 {
   "stationName": "Kentish Town West",
   "lat": 51.546501,
   "long": -0.146778,
   "crsCode": "KTW",
   "natpanCode": "0",
   "FareZone": "0",
   "Wifi": false,
   "LinesServed": "Mildmay line",
   "serviceType": "T"
 },
 {
   "stationName": "Regent's Park",
   "lat": 51.523589,
   "long": -0.146708,
   "crsCode": "REP",
   "natpanCode": "940GZZLURGP",
   "FareZone": "0",
   "Wifi": false,
   "LinesServed": "0",
   "serviceType": "T"
 },
 {
   "stationName": "Highgate",
   "lat": 51.577586,
   "long": -0.145985,
   "crsCode": "HGT",
   "natpanCode": "940GZZLUHGT",
   "FareZone": "0",
   "Wifi": false,
   "LinesServed": "0",
   "serviceType": "T"
 },
 {
   "stationName": "London Victoria",
   "lat": 51.4966,
   "long": -0.1448,
   "crsCode": "VIC",
   "natpanCode": "0",
   "FareZone": "0",
   "Wifi": false,
   "LinesServed": "#N/A",
   "serviceType": "N"
 },
 {
   "stationName": "Great Portland Street",
   "lat": 51.52374,
   "long": -0.143704,
   "crsCode": "GPS",
   "natpanCode": "940GZZLUGPS",
   "FareZone": "0",
   "Wifi": false,
   "LinesServed": "0",
   "serviceType": "T"
 },
 {
   "stationName": "Green Park",
   "lat": 51.506838,
   "long": -0.142835,
   "crsCode": "GRP",
   "natpanCode": "940GZZLUGPK",
   "FareZone": "0",
   "Wifi": false,
   "LinesServed": "0",
   "serviceType": "T"
 },
 {
   "stationName": "New Southgate",
   "lat": 51.613876,
   "long": -0.142586,
   "crsCode": "NSG",
   "natpanCode": "0",
   "FareZone": "0",
   "Wifi": false,
   "LinesServed": "#N/A",
   "serviceType": "N"
 },
 {
   "stationName": "Camden Town",
   "lat": 51.539295,
   "long": -0.142494,
   "crsCode": "CMD",
   "natpanCode": "940GZZLUCTN",
   "FareZone": "0",
   "Wifi": false,
   "LinesServed": "0",
   "serviceType": "T"
 },
 {
   "stationName": "Oxford Circus",
   "lat": 51.515123,
   "long": -0.141921,
   "crsCode": "OXC",
   "natpanCode": "940GZZLUOXC",
   "FareZone": "0",
   "Wifi": false,
   "LinesServed": "0",
   "serviceType": "T"
 },
 {
   "stationName": "Kentish Town",
   "lat": 51.550338,
   "long": -0.140446,
   "crsCode": "KTN",
   "natpanCode": "0",
   "FareZone": "0",
   "Wifi": true,
   "LinesServed": "Northern",
   "serviceType": "T"
 },
 {
   "stationName": "Camden Road",
   "lat": 51.541889,
   "long": -0.139764,
   "crsCode": "CMD",
   "natpanCode": "0",
   "FareZone": "0",
   "Wifi": true,
   "LinesServed": "0",
   "serviceType": "T"
 },
 {
   "stationName": "Mornington Crescent",
   "lat": 51.534125,
   "long": -0.139129,
   "crsCode": "MTC",
   "natpanCode": "940GZZLUMTC",
   "FareZone": "0",
   "Wifi": false,
   "LinesServed": "0",
   "serviceType": "T"
 },
 {
   "stationName": "Clapham Common",
   "lat": 51.461815,
   "long": -0.138473,
   "crsCode": "CPC",
   "natpanCode": "940GZZLUCPC",
   "FareZone": "0",
   "Wifi": false,
   "LinesServed": "0",
   "serviceType": "T"
 },
 {
   "stationName": "Wandsworth Road",
   "lat": 51.470829,
   "long": -0.138332,
   "crsCode": "WWR",
   "natpanCode": "0",
   "FareZone": "0",
   "Wifi": false,
   "LinesServed": "0",
   "serviceType": "T"
 },
 {
   "stationName": "Tufnell Park",
   "lat": 51.556717,
   "long": -0.138164,
   "crsCode": "TFP",
   "natpanCode": "940GZZLUTFP",
   "FareZone": "0",
   "Wifi": false,
   "LinesServed": "0",
   "serviceType": "T"
 },
 {
   "stationName": "Warren Street",
   "lat": 51.524566,
   "long": -0.137991,
   "crsCode": "WAS",
   "natpanCode": "940GZZLUWRR",
   "FareZone": "0",
   "Wifi": false,
   "LinesServed": "0",
   "serviceType": "T"
 },
 {
   "stationName": "Coulsdon South",
   "lat": 51.315231,
   "long": -0.13746,
   "crsCode": "CDS",
   "natpanCode": "0",
   "FareZone": "0",
   "Wifi": true,
   "LinesServed": "0",
   "serviceType": "N"
 },
 {
   "stationName": "Streatham Common",
   "lat": 51.418629,
   "long": -0.136136,
   "crsCode": "SRC",
   "natpanCode": "0",
   "FareZone": "0",
   "Wifi": false,
   "LinesServed": "#N/A",
   "serviceType": "N"
 },
 {
   "stationName": "Euston Square",
   "lat": 51.525601,
   "long": -0.135772,
   "crsCode": "EUQ",
   "natpanCode": "940GZZLUESQ",
   "FareZone": "0",
   "Wifi": false,
   "LinesServed": "0",
   "serviceType": "T"
 },
 {
   "stationName": "Archway",
   "lat": 51.565242,
   "long": -0.134757,
   "crsCode": "ARC",
   "natpanCode": "940GZZLUACY",
   "FareZone": "0",
   "Wifi": false,
   "LinesServed": "0",
   "serviceType": "T"
 },
 {
   "stationName": "Piccadilly Circus",
   "lat": 51.509548,
   "long": -0.134553,
   "crsCode": "PIC",
   "natpanCode": "940GZZLUPCC",
   "FareZone": "0",
   "Wifi": false,
   "LinesServed": "0",
   "serviceType": "T"
 },
 {
   "stationName": "London Euston",
   "lat": 51.528313,
   "long": -0.134545,
   "crsCode": "EUS",
   "natpanCode": "0",
   "FareZone": "0",
   "Wifi": false,
   "LinesServed": "#N/A",
   "serviceType": "N"
 },
 {
   "stationName": "Goodge Street",
   "lat": 51.520671,
   "long": -0.134503,
   "crsCode": "GDG",
   "natpanCode": "940GZZLUGDG",
   "FareZone": "0",
   "Wifi": false,
   "LinesServed": "0",
   "serviceType": "T"
 },
 {
   "stationName": "Coulsdon Town",
   "lat": 51.32243,
   "long": -0.13429,
   "crsCode": "CDN",
   "natpanCode": "0",
   "FareZone": "0",
   "Wifi": false,
   "LinesServed": "#N/A",
   "serviceType": "N"
 },
 {
   "stationName": "Pimlico",
   "lat": 51.489293,
   "long": -0.133724,
   "crsCode": "PIM",
   "natpanCode": "940GZZLUPCO",
   "FareZone": "0",
   "Wifi": false,
   "LinesServed": "0",
   "serviceType": "T"
 },
 {
   "stationName": "Arnos Grove",
   "lat": 51.616063,
   "long": -0.133396,
   "crsCode": "ARG",
   "natpanCode": "940GZZLUASG",
   "FareZone": "0",
   "Wifi": false,
   "LinesServed": "0",
   "serviceType": "T"
 },
 {
   "stationName": "Clapham High Street",
   "lat": 51.46534,
   "long": -0.1328,
   "crsCode": "CLP",
   "natpanCode": "0",
   "FareZone": "0",
   "Wifi": false,
   "LinesServed": "Windrush line",
   "serviceType": "T"
 },
 {
   "stationName": "Nutfield",
   "lat": 51.22702,
   "long": -0.132425,
   "crsCode": "NUF",
   "natpanCode": "0",
   "FareZone": "0",
   "Wifi": false,
   "LinesServed": "#N/A",
   "serviceType": "N"
 },
 {
   "stationName": "Oakwood",
   "lat": 51.647632,
   "long": -0.132085,
   "crsCode": "OAK",
   "natpanCode": "940GZZLUOAK",
   "FareZone": "0",
   "Wifi": false,
   "LinesServed": "0",
   "serviceType": "T"
 },
 {
   "stationName": "Streatham",
   "lat": 51.425755,
   "long": -0.131535,
   "crsCode": "STE",
   "natpanCode": "0",
   "FareZone": "0",
   "Wifi": true,
   "LinesServed": "0",
   "serviceType": "T"
 },
 {
   "stationName": "Tottenham Court Road",
   "lat": 51.5162,
   "long": -0.1309,
   "crsCode": "TCR",
   "natpanCode": "0",
   "FareZone": "0",
   "Wifi": false,
   "LinesServed": "Central, Elizabeth line, Northern",
   "serviceType": "T"
 },
 {
   "stationName": "Clapham North",
   "lat": 51.46518,
   "long": -0.129554,
   "crsCode": "CMN",
   "natpanCode": "940GZZLUCPN",
   "FareZone": "0",
   "Wifi": false,
   "LinesServed": "0",
   "serviceType": "T"
 },
 {
   "stationName": "Upper Holloway",
   "lat": 51.563652,
   "long": -0.129293,
   "crsCode": "UHL",
   "natpanCode": "0",
   "FareZone": "0",
   "Wifi": false,
   "LinesServed": "0",
   "serviceType": "T"
 },
 {
   "stationName": "Leicester Square",
   "lat": 51.511731,
   "long": -0.128224,
   "crsCode": "LSQ",
   "natpanCode": "940GZZLULSQ",
   "FareZone": "0",
   "Wifi": false,
   "LinesServed": "0",
   "serviceType": "T"
 },
 {
   "stationName": "Streatham Hill",
   "lat": 51.43829,
   "long": -0.128136,
   "crsCode": "SRH",
   "natpanCode": "0",
   "FareZone": "0",
   "Wifi": false,
   "LinesServed": "#N/A",
   "serviceType": "N"
 },
 {
   "stationName": "Southgate",
   "lat": 51.632317,
   "long": -0.128061,
   "crsCode": "SOG",
   "natpanCode": "940GZZLUSGT",
   "FareZone": "0",
   "Wifi": false,
   "LinesServed": "0",
   "serviceType": "T"
 },
 {
   "stationName": "London St Pancras International",
   "lat": 51.531921,
   "long": -0.126361,
   "crsCode": "STP",
   "natpanCode": "0",
   "FareZone": "0",
   "Wifi": false,
   "LinesServed": "#N/A",
   "serviceType": "N"
 },
 {
   "stationName": "Bounds Green",
   "lat": 51.60693,
   "long": -0.124557,
   "crsCode": "BOG",
   "natpanCode": "940GZZLUBDS",
   "FareZone": "0",
   "Wifi": false,
   "LinesServed": "0",
   "serviceType": "T"
 },
 {
   "stationName": "Russell Square",
   "lat": 51.52318,
   "long": -0.124353,
   "crsCode": "RSQ",
   "natpanCode": "940GZZLURSQ",
   "FareZone": "0",
   "Wifi": false,
   "LinesServed": "0",
   "serviceType": "T"
 },
 {
   "stationName": "Covent Garden",
   "lat": 51.51307,
   "long": -0.124235,
   "crsCode": "CGN",
   "natpanCode": "940GZZLUCGN",
   "FareZone": "0",
   "Wifi": false,
   "LinesServed": "0",
   "serviceType": "T"
 },
 {
   "stationName": "Vauxhall",
   "lat": 51.485686,
   "long": -0.124025,
   "crsCode": "VXH",
   "natpanCode": "0",
   "FareZone": "0",
   "Wifi": true,
   "LinesServed": "Victoria",
   "serviceType": "C"
 },
 {
   "stationName": "Reedham (London)",
   "lat": 51.332108,
   "long": -0.123854,
   "crsCode": "RHM",
   "natpanCode": "0",
   "FareZone": "0",
   "Wifi": false,
   "LinesServed": "#N/A",
   "serviceType": "N"
 },
 {
   "stationName": "London Charing Cross",
   "lat": 51.508362,
   "long": -0.123835,
   "crsCode": "CHX",
   "natpanCode": "0",
   "FareZone": "0",
   "Wifi": false,
   "LinesServed": "#N/A",
   "serviceType": "N"
 },
 {
   "stationName": "Norbury",
   "lat": 51.411236,
   "long": -0.123492,
   "crsCode": "NRB",
   "natpanCode": "0",
   "FareZone": "0",
   "Wifi": false,
   "LinesServed": "Southern",
   "serviceType": "N"
 },
 {
   "stationName": "London Kings Cross",
   "lat": 51.530827,
   "long": -0.122907,
   "crsCode": "KGX",
   "natpanCode": "0",
   "FareZone": "0",
   "Wifi": false,
   "LinesServed": "#N/A",
   "serviceType": "N"
 },